[
 {
   "storeName": "Aalborg",
   "storeNumber": 5,
   "storeImage": "ikea_brooklyn",
   "address": "Krebsen 40",
   "zipCode": "9200",
   "city": "Åalborg",
   "country": "Denmark",
   "telephone": "4572299300",
   "size": 31861,
   "roomSettings": 52,
   "realLifeHomes": 3,
   "cashLanes": 28,
   "restaurantSeating": 361,
   "latitude": 56.99516952,
   "longitude": 9.8662433,
   "webpage": "http://www.ikea.com/dk/da/store/aalborg",
   "smaland": 0
 },
 {
   "storeName": "Aarhus",
   "storeNumber": 298,
   "storeImage": "ikea_burbank",
   "address": "Graham Bells Vej  9-11",
   "zipCode": "8200",
   "city": "Aarhus",
   "country": "Denmark",
   "telephone": "4541214488",
   "size": 0,
   "roomSettings": 0,
   "realLifeHomes": 0,
   "cashLanes": 0,
   "restaurantSeating": 0,
   "latitude": 56.203934,
   "longitude": 10.181035,
   "webpage": "http://www.ikea.com/dk/da/store/aarhus",
   "smaland": 1
 },
 {
   "storeName": "Abu Dhabi",
   "storeNumber": 55,
   "storeImage": "ikea_cairo",
   "address": "Dubai Festival City",
   "zipCode": "50618",
   "city": "Dubai",
   "country": "United Arab Emirates",
   "telephone": "97126812228",
   "size": 24176,
   "roomSettings": 53,
   "realLifeHomes": 3,
   "cashLanes": 22,
   "restaurantSeating": 822,
   "latitude": 24.292597,
   "longitude": 54.364765,
   "webpage": "http://www.ikea.com/ae/en/store/abu_dhabi",
   "smaland": 0
 },
 {
   "storeName": "Adelaide",
   "storeNumber": 192,
   "storeImage": "ikea_canton",
   "address": "Sir Donald Bradman Drive  397",
   "zipCode": "5950",
   "city": "Adelaide",
   "country": "Australia",
   "telephone": "61881544532",
   "size": 23500,
   "roomSettings": 51,
   "realLifeHomes": 3,
   "cashLanes": 0,
   "restaurantSeating": 0,
   "latitude": -34.9343127,
   "longitude": 138.5384295,
   "webpage": "http://www.ikea.com/aa/en/store/adelaide",
   "smaland": 1
 },
 {
   "storeName": "Adygea (Adygea-Kuban)",
   "storeNumber": 480,
   "storeImage": "ikea_carson",
   "address": "Takhtamukaiskiy Region",
   "zipCode": "385112",
   "city": "Adigeya",
   "country": "Russia",
   "telephone": "",
   "size": 26650,
   "roomSettings": 59,
   "realLifeHomes": 2,
   "cashLanes": 20,
   "restaurantSeating": 620,
   "latitude": 45.010937,
   "longitude": 38.926809,
   "webpage": "http://www.ikea.com/ru/ru/",
   "smaland": 0
 },
 {
   "storeName": "Älmhult",
   "storeNumber": 268,
   "storeImage": "ikea_elizabeth",
   "address": "Handelsvägen 4",
   "zipCode": "34333",
   "city": "Älmhult",
   "country": "Sweden",
   "telephone": "4647681600",
   "size": 25391,
   "roomSettings": 28,
   "realLifeHomes": 2,
   "cashLanes": 12,
   "restaurantSeating": 550,
   "latitude": 56.5524461,
   "longitude": 14.1374047,
   "webpage": "http://www.ikea.com/se/sv/store/almhult",
   "smaland": 1
 },
 {
   "storeName": "Amersfoort",
   "storeNumber": 415,
   "storeImage": "ikea_emeryville",
   "address": "Euroweg  101",
   "zipCode": "3825HB",
   "city": "Amersfoort",
   "country": "Netherlands",
   "telephone": "31334543546",
   "size": 30967,
   "roomSettings": 72,
   "realLifeHomes": 3,
   "cashLanes": 29,
   "restaurantSeating": 541,
   "latitude": 52.187064,
   "longitude": 5.415384,
   "webpage": "http://www.ikea.com/nl/nl/store/amersfoort",
   "smaland": 1
 },
 {
   "storeName": "Amman",
   "storeNumber": 237,
   "storeImage": "ikea_hamburg",
   "address": "Airport Road - Madaba Bridge",
   "zipCode": "11821",
   "city": "Amman",
   "country": "Jordan",
   "telephone": "96265508030",
   "size": 35250,
   "roomSettings": 0,
   "realLifeHomes": 0,
   "cashLanes": 14,
   "restaurantSeating": 470,
   "latitude": 31.826244,
   "longitude": 35.901653,
   "webpage": "",
   "smaland": 1
 },
 {
   "storeName": "Amsterdam",
   "storeNumber": 88,
   "storeImage": "ikea_madrid",
   "address": "Hullenbergweg  2",
   "zipCode": "1101 BL",
   "city": "Amsterdam",
   "country": "Netherlands",
   "telephone": "31205648888",
   "size": 32709,
   "roomSettings": 72,
   "realLifeHomes": 3,
   "cashLanes": 37,
   "restaurantSeating": 612,
   "latitude": 52.3025445,
   "longitude": 4.949478,
   "webpage": "http://www.ikea.com/nl/nl/store/amsterdam",
   "smaland": 1
 },
 {
   "storeName": "Ancona (Camerano)",
   "storeNumber": 457,
   "storeImage": "ikea_sandiego",
   "address": "Via Terme Dell'aspio Ex Farfisa",
   "zipCode": "60021",
   "city": "Camerano",
   "country": "Italy",
   "telephone": "",
   "size": 24083,
   "roomSettings": 54,
   "realLifeHomes": 3,
   "cashLanes": 28,
   "restaurantSeating": 424,
   "latitude": 43.5298062,
   "longitude": 13.5195018,
   "webpage": "",
   "smaland": 0
 },
 {
   "storeName": "Ankara",
   "storeNumber": 127,
   "storeImage": "ikea_tampines",
   "address": "IKEA Anatolium ADA Parcel",
   "zipCode": "39658",
   "city": "Ankara",
   "country": "Turkey",
   "telephone": "+90 216 5280555/2017",
   "size": 39167,
   "roomSettings": 50,
   "realLifeHomes": 3,
   "cashLanes": 25,
   "restaurantSeating": 700,
   "latitude": 39.888453,
   "longitude": 32.932642,
   "webpage": "http://www.ikea.com.tr/Magaza/Genel/5.aspx",
   "smaland": 0
 },
 {
   "storeName": "Antwerp (Wilrijk)",
   "storeNumber": 179,
   "storeImage": "ikea_tempe",
   "address": "",
   "zipCode": "",
   "city": "",
   "country": "Belgium",
   "telephone": "",
   "size": 32194,
   "roomSettings": 53,
   "realLifeHomes": 3,
   "cashLanes": 40,
   "restaurantSeating": 670,
   "latitude": 51.157466,
   "longitude": 4.385166,
   "webpage": "",
   "smaland": 1
 },
 {
   "storeName": "Arlon (Sterpenich)",
   "storeNumber": 483,
   "storeImage": "ikea_tottenham",
   "address": "Rue De Grasse  100",
   "zipCode": "6700",
   "city": "Arlon",
   "country": "Belgium",
   "telephone": "3263214811",
   "size": 25429,
   "roomSettings": 46,
   "realLifeHomes": 3,
   "cashLanes": 28,
   "restaurantSeating": 460,
   "latitude": 49.637277,
   "longitude": 5.890919,
   "webpage": "http://www.ikea.com/be/nl/store/arlon",
   "smaland": 0
 },
 {
   "storeName": "Asturias",
   "storeNumber": 428,
   "storeImage": "ikea_webley",
   "address": "Parque Principado Concejo De Siero",
   "zipCode": "33510",
   "city": "Pola De Siero",
   "country": "Spain",
   "telephone": "34985989725",
   "size": 26147,
   "roomSettings": 42,
   "realLifeHomes": 3,
   "cashLanes": 21,
   "restaurantSeating": 375,
   "latitude": 43.3878841,
   "longitude": -5.8057548,
   "webpage": "http://www.ikea.com/es/es/store/asturias",
   "smaland": 1
 },
 {
   "storeName": "Athens (Airport)",
   "storeNumber": 364,
   "storeImage": "ikea_westchester",
   "address": "Bldg 501  Athens International Airport Commercial Park",
   "zipCode": "19019",
   "city": "Athens",
   "country": "Greece",
   "telephone": "302103543411",
   "size": 26195,
   "roomSettings": 46,
   "realLifeHomes": 3,
   "cashLanes": 22,
   "restaurantSeating": 478,
   "latitude": 37.9250333,
   "longitude": 23.9316834,
   "webpage": "http://www.ikea.gr/default.aspx?page=home",
   "smaland": 0
 },
 {
   "storeName": "Athens (Kifisou)",
   "storeNumber": 365,
   "storeImage": "ikea_brooklyn",
   "address": "Kifisou Avenue  96",
   "zipCode": "12241",
   "city": "Aigaleo",
   "country": "Greece",
   "telephone": "302105400430",
   "size": 25040,
   "roomSettings": 52,
   "realLifeHomes": 3,
   "cashLanes": 23,
   "restaurantSeating": 426,
   "latitude": 37.9815857,
   "longitude": 23.6793935,
   "webpage": "",
   "smaland": 1
 },
 {
   "storeName": "Atlanta (Midtown)",
   "storeNumber": 257,
   "storeImage": "ikea_burbank",
   "address": "16th Street  441",
   "zipCode": "30363",
   "city": "Atlanta",
   "country": "USA",
   "telephone": "",
   "size": 31600,
   "roomSettings": 45,
   "realLifeHomes": 3,
   "cashLanes": 25,
   "restaurantSeating": 398,
   "latitude": 33.7886038,
   "longitude": -84.4050641,
   "webpage": "http://www.ikea.com/us/en/store/atlanta",
   "smaland": 1
 },
 {
   "storeName": "Augsburg",
   "storeNumber": 66,
   "storeImage": "ikea_cairo",
   "address": "Otto Hanh Strasse  99",
   "zipCode": "86368",
   "city": "Gersthofen",
   "country": "Germany",
   "telephone": "",
   "size": 29525,
   "roomSettings": 52,
   "realLifeHomes": 3,
   "cashLanes": 30,
   "restaurantSeating": 452,
   "latitude": 48.403923,
   "longitude": 10.871747,
   "webpage": "http://www.ikea.com/de/de/store/augsburg",
   "smaland": 0
 },
 {
   "storeName": "Austin (Round Rock)",
   "storeNumber": 27,
   "storeImage": "ikea_canton",
   "address": "Ikea Way  1",
   "zipCode": "78664",
   "city": "Round Rock",
   "country": "USA",
   "telephone": "15123108027",
   "size": 28292,
   "roomSettings": 40,
   "realLifeHomes": 3,
   "cashLanes": 20,
   "restaurantSeating": 250,
   "latitude": 30.5572378,
   "longitude": -97.6900849,
   "webpage": "http://www.ikea.com/us/en/store/round_rock",
   "smaland": 0
 },
 {
   "storeName": "Avignon (Vedène)",
   "storeNumber": 18,
   "storeImage": "ikea_carson",
   "address": "100 Chemin Du Pont Blanc",
   "zipCode": "84270",
   "city": "Vedene",
   "country": "France",
   "telephone": "33490338116",
   "size": 27004,
   "roomSettings": 52,
   "realLifeHomes": 3,
   "cashLanes": 28,
   "restaurantSeating": 528,
   "latitude": 43.9789766,
   "longitude": 4.8895785,
   "webpage": "http://www.ikea.com/fr/fr/store/avignon",
   "smaland": 1
 },
 {
   "storeName": "Baltimore (White Marsh)",
   "storeNumber": 152,
   "storeImage": "ikea_elizabeth",
   "address": "Honeygo Blvd  8352",
   "zipCode": "21236",
   "city": "Baltimore",
   "country": "USA",
   "telephone": "14109315400",
   "size": 18542,
   "roomSettings": 24,
   "realLifeHomes": 0,
   "cashLanes": 15,
   "restaurantSeating": 180,
   "latitude": 39.3751998,
   "longitude": -76.4616666,
   "webpage": "http://www.ikea.com/us/en/store/baltimore",
   "smaland": 0
 },
 {
   "storeName": "Bangkok (Bangna)",
   "storeNumber": 57,
   "storeImage": "ikea_emeryville",
   "address": "38 Moo 6, Banga-trad Rd",
   "zipCode": "10540",
   "city": "Bangplee, samut Prakarn",
   "country": "Thailand",
   "telephone": "",
   "size": 43000,
   "roomSettings": 62,
   "realLifeHomes": 3,
   "cashLanes": 27,
   "restaurantSeating": 734,
   "latitude": 13.645653,
   "longitude": 100.680771,
   "webpage": "",
   "smaland": 1
 },
 {
   "storeName": "Barcelona (Badalona)",
   "storeNumber": 280,
   "storeImage": "ikea_hamburg",
   "address": "C/Luxemburgo Esquina C/Grecia",
   "zipCode": "8917",
   "city": "Barcelona",
   "country": "Spain",
   "telephone": "34934970015",
   "size": 32850,
   "roomSettings": 38,
   "realLifeHomes": 3,
   "cashLanes": 42,
   "restaurantSeating": 450,
   "latitude": 41.4592601,
   "longitude": 2.2254202,
   "webpage": "http://www.ikea.com/es/es/store/badalona",
   "smaland": 0
 },
 {
   "storeName": "Barcelona (Hospitalet de Llobregat)",
   "storeNumber": 406,
   "storeImage": "ikea_madrid",
   "address": "C/Ciencias 100",
   "zipCode": "8908",
   "city": "Barcelona",
   "country": "Spain",
   "telephone": "34933780462",
   "size": 33577,
   "roomSettings": 44,
   "realLifeHomes": 3,
   "cashLanes": 40,
   "restaurantSeating": 473,
   "latitude": 41.3545245,
   "longitude": 2.1236489,
   "webpage": "http://www.ikea.com/es/es/store/lhospitalet",
   "smaland": 1
 },
 {
   "storeName": "Barcelona (Sabadell)",
   "storeNumber": 171,
   "storeImage": "ikea_sandiego",
   "address": "Parcela 3. Sect Sant Pau de Tiu",
   "zipCode": "8205",
   "city": "Sabadell",
   "country": "Spain",
   "telephone": "34606977791",
   "size": 40398,
   "roomSettings": 49,
   "realLifeHomes": 3,
   "cashLanes": 41,
   "restaurantSeating": 730,
   "latitude": 41.5486198,
   "longitude": 2.1074206,
   "webpage": "http://www.ikea.com/es/es/",
   "smaland": 1
 },
 {
   "storeName": "Barendrecht",
   "storeNumber": 274,
   "storeImage": "ikea_tampines",
   "address": "Hamburg  1",
   "zipCode": "2993 LG",
   "city": "Barendrecht",
   "country": "Netherlands",
   "telephone": "31180656000",
   "size": 36463,
   "roomSettings": 53,
   "realLifeHomes": 3,
   "cashLanes": 37,
   "restaurantSeating": 720,
   "latitude": 51.8497049,
   "longitude": 4.5128811,
   "webpage": "http://www.ikea.com/nl/nl/store/barendrecht",
   "smaland": 1
 },
 {
   "storeName": "Bari",
   "storeNumber": 356,
   "storeImage": "ikea_tempe",
   "address": "Via Caduti Del Lavoro  3",
   "zipCode": "70126",
   "city": "Bari",
   "country": "Italy",
   "telephone": "3902929271",
   "size": 24236,
   "roomSettings": 42,
   "realLifeHomes": 3,
   "cashLanes": 33,
   "restaurantSeating": 420,
   "latitude": 41.0885549,
   "longitude": 16.8983642,
   "webpage": "http://www.ikea.com/it/it/store/bari",
   "smaland": 1
 },
 {
   "storeName": "Basel (Pratteln)",
   "storeNumber": 292,
   "storeImage": "ikea_tottenham",
   "address": "Gruessenweg  21",
   "zipCode": "4133",
   "city": "Pratteln",
   "country": "Switzerland",
   "telephone": "",
   "size": 27357,
   "roomSettings": 48,
   "realLifeHomes": 3,
   "cashLanes": 25,
   "restaurantSeating": 480,
   "latitude": 47.5276841,
   "longitude": 7.6887892,
   "webpage": "http://www.ikea.com/ch/de/store/pratteln",
   "smaland": 0
 },
 {
   "storeName": "Bayonne",
   "storeNumber": 310,
   "storeImage": "ikea_webley",
   "address": "2-4 Avenue du Pourtou",
   "zipCode": "64990",
   "city": "Bayonne",
   "country": "France",
   "telephone": "",
   "size": 0,
   "roomSettings": 0,
   "realLifeHomes": 0,
   "cashLanes": 0,
   "restaurantSeating": 0,
   "latitude": 43.478372,
   "longitude": -1.444514,
   "webpage": "",
   "smaland": 0
 },
 {
   "storeName": "Beijing",
   "storeNumber": 802,
   "storeImage": "ikea_westchester",
   "address": "No. 59, The Futong Eastern street",
   "zipCode": "100102",
   "city": "Beijing",
   "country": "China",
   "telephone": "",
   "size": 43871,
   "roomSettings": 63,
   "realLifeHomes": 4,
   "cashLanes": 37,
   "restaurantSeating": 760,
   "latitude": 39.976169,
   "longitude": 116.45719,
   "webpage": "",
   "smaland": 1
 },
 {
   "storeName": "Beijing (Xihongmen)",
   "storeNumber": 214,
   "storeImage": "ikea_brooklyn",
   "address": "No.2 Hongfu West Rd",
   "zipCode": "1001612",
   "city": "Beijing",
   "country": "China",
   "telephone": "",
   "size": 50811,
   "roomSettings": 0,
   "realLifeHomes": 0,
   "cashLanes": 0,
   "restaurantSeating": 834,
   "latitude": 39.789775,
   "longitude": 116.328692,
   "webpage": "",
   "smaland": 0
 },
 {
   "storeName": "Belfast",
   "storeNumber": 113,
   "storeImage": "ikea_burbank",
   "address": "Airport Rd W  306 (Holywood Exchange)",
   "zipCode": "BT3 9EJ",
   "city": "Belfast",
   "country": "United Kingdom",
   "telephone": "2890732610",
   "size": 30253,
   "roomSettings": 57,
   "realLifeHomes": 3,
   "cashLanes": 26,
   "restaurantSeating": 397,
   "latitude": 54.6214032,
   "longitude": -5.8631368,
   "webpage": "http://www.ikea.com/gb/en/store/belfast",
   "smaland": 1
 },
 {
   "storeName": "Bergen (Åsane)",
   "storeNumber": 441,
   "storeImage": "ikea_cairo",
   "address": "",
   "zipCode": "",
   "city": "",
   "country": "Norway",
   "telephone": "",
   "size": 39992,
   "roomSettings": 48,
   "realLifeHomes": 3,
   "cashLanes": 34,
   "restaurantSeating": 510,
   "latitude": 60.4712145,
   "longitude": 5.3249437,
   "webpage": "",
   "smaland": 0
 },
 {
   "storeName": "Berlin (Lichtenberg)",
   "storeNumber": 324,
   "storeImage": "ikea_canton",
   "address": "Landsbergerallee  364",
   "zipCode": "10365",
   "city": "Berlin",
   "country": "Germany",
   "telephone": "493054989330",
   "size": 42646,
   "roomSettings": 53,
   "realLifeHomes": 3,
   "cashLanes": 42,
   "restaurantSeating": 514,
   "latitude": 52.534026,
   "longitude": 13.513684,
   "webpage": "http://www.ikea.com/de/de/store/berlin_lichtenberg",
   "smaland": 1
 },
 {
   "storeName": "Berlin (Spandau)",
   "storeNumber": 394,
   "storeImage": "ikea_carson",
   "address": "Ruhlebener Strasse  23",
   "zipCode": "13597",
   "city": "Berlin",
   "country": "Germany",
   "telephone": "4930351860",
   "size": 35731,
   "roomSettings": 54,
   "realLifeHomes": 3,
   "cashLanes": 35,
   "restaurantSeating": 450,
   "latitude": 52.527944,
   "longitude": 13.214452,
   "webpage": "http://www.ikea.com/de/de/store/berlin_spandau",
   "smaland": 1
 },
 {
   "storeName": "Berlin (Tempelhof)",
   "storeNumber": 421,
   "storeImage": "ikea_elizabeth",
   "address": "Sachsendamm  47",
   "zipCode": "10829",
   "city": "Berlin",
   "country": "Germany",
   "telephone": "49307017500",
   "size": 41511,
   "roomSettings": 47,
   "realLifeHomes": 3,
   "cashLanes": 50,
   "restaurantSeating": 620,
   "latitude": 52.469579,
   "longitude": 13.366117,
   "webpage": "http://www.ikea.com/de/de/store/berlin_tempelhof",
   "smaland": 0
 },
 {
   "storeName": "Berlin (Waltersdorf)",
   "storeNumber": 129,
   "storeImage": "ikea_emeryville",
   "address": "Am Rondell  8 (Airport Center)",
   "zipCode": "12529",
   "city": "Schoenefeld",
   "country": "Germany",
   "telephone": "4933762660",
   "size": 23913,
   "roomSettings": 42,
   "realLifeHomes": 3,
   "cashLanes": 29,
   "restaurantSeating": 307,
   "latitude": 52.366855,
   "longitude": 13.555795,
   "webpage": "http://www.ikea.com/de/de/store/berlin_waltersdorf",
   "smaland": 0
 },
 {
   "storeName": "Bern (Lyssach)",
   "storeNumber": 290,
   "storeImage": "ikea_hamburg",
   "address": "Bernstrasse  25",
   "zipCode": "3421",
   "city": "Lyssach",
   "country": "Switzerland",
   "telephone": "41344488301",
   "size": 32507,
   "roomSettings": 42,
   "realLifeHomes": 3,
   "cashLanes": 27,
   "restaurantSeating": 620,
   "latitude": 47.0743121,
   "longitude": 7.5698763,
   "webpage": "http://www.ikea.com/ch/fr/store/lyssach/",
   "smaland": 1
 },
 {
   "storeName": "Bielefeld",
   "storeNumber": 119,
   "storeImage": "ikea_madrid",
   "address": "Südring  7",
   "zipCode": "33647",
   "city": "Bielefeld",
   "country": "Germany",
   "telephone": "4952194470",
   "size": 27132,
   "roomSettings": 44,
   "realLifeHomes": 3,
   "cashLanes": 29,
   "restaurantSeating": 375,
   "latitude": 51.9812964,
   "longitude": 8.4924098,
   "webpage": "http://www.ikea.com/de/de/store/bielefeld",
   "smaland": 0
 },
 {
   "storeName": "Bilbao (Barakaldo)",
   "storeNumber": 276,
   "storeImage": "ikea_sandiego",
   "address": "Ibarreta-Zuloko (Megapark)",
   "zipCode": "48903",
   "city": "Bilbao",
   "country": "Spain",
   "telephone": "34944858271",
   "size": 31353,
   "roomSettings": 51,
   "realLifeHomes": 3,
   "cashLanes": 40,
   "restaurantSeating": 495,
   "latitude": 43.2917041,
   "longitude": -3.006877,
   "webpage": "http://www.ikea.com/es/es/store/barakaldo",
   "smaland": 1
 },
 {
   "storeName": "Birmingham",
   "storeNumber": 142,
   "storeImage": "ikea_tampines",
   "address": "Park Lane (Wednesbury)",
   "zipCode": "WS10 9SF",
   "city": "West Midlands",
   "country": "United Kingdom",
   "telephone": "441216255232",
   "size": 27697,
   "roomSettings": 45,
   "realLifeHomes": 2,
   "cashLanes": 30,
   "restaurantSeating": 490,
   "latitude": 52.569611,
   "longitude": -2.015611,
   "webpage": "http://www.ikea.com/gb/en/store/wednesbury",
   "smaland": 0
 },
 {
   "storeName": "Bologna (Casalecchio)",
   "storeNumber": 231,
   "storeImage": "ikea_tempe",
   "address": "Via John Lennon  2",
   "zipCode": "40033",
   "city": "Bologna",
   "country": "Italy",
   "telephone": "390516139451",
   "size": 22737,
   "roomSettings": 49,
   "realLifeHomes": 3,
   "cashLanes": 34,
   "restaurantSeating": 320,
   "latitude": 44.4876185,
   "longitude": 11.2518207,
   "webpage": "http://www.ikea.com/it/it/store/bologna_casalecchio",
   "smaland": 1
 },
 {
   "storeName": "Bordeaux",
   "storeNumber": 134,
   "storeImage": "ikea_tottenham",
   "address": "Avenue Des 40 Journaux",
   "zipCode": "33049",
   "city": "Bordeaux",
   "country": "France",
   "telephone": "33557100333",
   "size": 27093,
   "roomSettings": 44,
   "realLifeHomes": 3,
   "cashLanes": 39,
   "restaurantSeating": 580,
   "latitude": 44.885021,
   "longitude": -0.565518,
   "webpage": "http://www.ikea.com/fr/fr/store/bordeaux",
   "smaland": 1
 },
 {
   "storeName": "Borlänge",
   "storeNumber": 248,
   "storeImage": "ikea_webley",
   "address": "Norra Backagatan 1",
   "zipCode": "78170",
   "city": "Borlange",
   "country": "Sweden",
   "telephone": "",
   "size": 31300,
   "roomSettings": 45,
   "realLifeHomes": 3,
   "cashLanes": 24,
   "restaurantSeating": 550,
   "latitude": 60.4819,
   "longitude": 15.42109167,
   "webpage": "",
   "smaland": 1
 },
 {
   "storeName": "Boston (Stoughton)",
   "storeNumber": 158,
   "storeImage": "ikea_westchester",
   "address": "Ikea Way  1",
   "zipCode": "2072",
   "city": "Stoughton",
   "country": "USA",
   "telephone": "",
   "size": 35393,
   "roomSettings": 42,
   "realLifeHomes": 3,
   "cashLanes": 23,
   "restaurantSeating": 350,
   "latitude": 42.1380556,
   "longitude": -71.0684858,
   "webpage": "http://www.ikea.com/us/en/store/stoughton",
   "smaland": 1
 },
 {
   "storeName": "Braga",
   "storeNumber": 499,
   "storeImage": "ikea_brooklyn",
   "address": "Av. Do Cavado CC Nova Arcada",
   "zipCode": "4700-005",
   "city": "Braga",
   "country": "Portugal",
   "telephone": "",
   "size": 0,
   "roomSettings": 0,
   "realLifeHomes": 0,
   "cashLanes": 0,
   "restaurantSeating": 0,
   "latitude": 41.5774,
   "longitude": -8.4322,
   "webpage": "",
   "smaland": 0
 },
 {
   "storeName": "Bratislava",
   "storeNumber": 489,
   "storeImage": "ikea_burbank",
   "address": "Ivanska Cesta  18",
   "zipCode": "82104",
   "city": "Bratislava",
   "country": "Slovakia",
   "telephone": "",
   "size": 35401,
   "roomSettings": 56,
   "realLifeHomes": 3,
   "cashLanes": 30,
   "restaurantSeating": 470,
   "latitude": 48.168309,
   "longitude": 17.1827801,
   "webpage": "http://www.ikea.com/sk/sk/store/Bratislava_store",
   "smaland": 0
 },
 {
   "storeName": "Braunschweig",
   "storeNumber": 117,
   "storeImage": "ikea_cairo",
   "address": "Hansestrasse  27",
   "zipCode": "38112",
   "city": "Braunschweig",
   "country": "Germany",
   "telephone": "4953121300",
   "size": 27472,
   "roomSettings": 45,
   "realLifeHomes": 3,
   "cashLanes": 24,
   "restaurantSeating": 364,
   "latitude": 52.308805,
   "longitude": 10.504409,
   "webpage": "http://www.ikea.com/de/de/store/braunschweig",
   "smaland": 1
 },
 {
   "storeName": "Breda",
   "storeNumber": 403,
   "storeImage": "ikea_canton",
   "address": "Kruisweide  1",
   "zipCode": "4814 RW",
   "city": "Breda",
   "country": "Netherlands",
   "telephone": "31765236800",
   "size": 25738,
   "roomSettings": 49,
   "realLifeHomes": 3,
   "cashLanes": 28,
   "restaurantSeating": 360,
   "latitude": 51.5804311,
   "longitude": 4.7285917,
   "webpage": "http://www.ikea.com/nl/nl/store/breda",
   "smaland": 0
 },
 {
   "storeName": "Bremen (Brinkum)",
   "storeNumber": 228,
   "storeImage": "ikea_carson",
   "address": "Henleinstrasse  1A",
   "zipCode": "28816",
   "city": "Bremen",
   "country": "Germany",
   "telephone": "4942187720",
   "size": 24430,
   "roomSettings": 35,
   "realLifeHomes": 3,
   "cashLanes": 27,
   "restaurantSeating": 250,
   "latitude": 53.026341,
   "longitude": 8.803387,
   "webpage": "http://www.ikea.com/de/de/store/brinkum",
   "smaland": 1
 },
 {
   "storeName": "Bremerhaven",
   "storeNumber": 412,
   "storeImage": "ikea_elizabeth",
   "address": "Weserstrasse 1i",
   "zipCode": "27572",
   "city": "Bremerhaven",
   "country": "Germany",
   "telephone": "",
   "size": 0,
   "roomSettings": 0,
   "realLifeHomes": 0,
   "cashLanes": 0,
   "restaurantSeating": 0,
   "latitude": 53.4942,
   "longitude": 8.6022,
   "webpage": "",
   "smaland": 0
 },
 {
   "storeName": "Brescia (Roncadelle)",
   "storeNumber": 354,
   "storeImage": "ikea_emeryville",
   "address": "Via Industriale  40",
   "zipCode": "25030",
   "city": "Roncadelle",
   "country": "Italy",
   "telephone": "390302788078",
   "size": 23925,
   "roomSettings": 44,
   "realLifeHomes": 3,
   "cashLanes": 30,
   "restaurantSeating": 436,
   "latitude": 45.5346879,
   "longitude": 10.1663253,
   "webpage": "http://www.ikea.com/it/it/store/brescia_roncadelle",
   "smaland": 1
 },
 {
   "storeName": "Brest (Guipavas)",
   "storeNumber": 60,
   "storeImage": "ikea_hamburg",
   "address": "Les Champs de Coataudon",
   "zipCode": "29490",
   "city": "Brest",
   "country": "France",
   "telephone": "330229612400",
   "size": 23173,
   "roomSettings": 44,
   "realLifeHomes": 3,
   "cashLanes": 25,
   "restaurantSeating": 463,
   "latitude": 48.418411,
   "longitude": -4.4415,
   "webpage": "http://www.ikea.com/fr/fr/store/brest",
   "smaland": 1
 },
 {
   "storeName": "Brisbane (Logan)",
   "storeNumber": 919,
   "storeImage": "ikea_madrid",
   "address": "Pacific Highway  3539",
   "zipCode": "4127",
   "city": "Brisbane",
   "country": "Australia",
   "telephone": "63733806800",
   "size": 23086,
   "roomSettings": 57,
   "realLifeHomes": 3,
   "cashLanes": 30,
   "restaurantSeating": 450,
   "latitude": -27.6379174,
   "longitude": 153.1349018,
   "webpage": "http://www.ikea.com/au/en/store/logan",
   "smaland": 0
 },
 {
   "storeName": "Brisbane (North Lakes)",
   "storeNumber": 460,
   "storeImage": "ikea_sandiego",
   "address": "North Lakes",
   "zipCode": "4509",
   "city": "Brisbane",
   "country": "Australia",
   "telephone": "",
   "size": 34795,
   "roomSettings": 0,
   "realLifeHomes": 0,
   "cashLanes": 0,
   "restaurantSeating": 490,
   "latitude": -27.2396,
   "longitude": 153.015307,
   "webpage": "http://www.ikea.com/au/en/store/north_lakes/",
   "smaland": 0
 },
 {
   "storeName": "Bristol",
   "storeNumber": 264,
   "storeImage": "ikea_tampines",
   "address": "Glenfrone Road  Eastville",
   "zipCode": "BS5 6XX",
   "city": "Bristol",
   "country": "United Kingdom",
   "telephone": "441179527000",
   "size": 24839,
   "roomSettings": 44,
   "realLifeHomes": 3,
   "cashLanes": 35,
   "restaurantSeating": 450,
   "latitude": 51.472285,
   "longitude": -2.565173,
   "webpage": "http://www.ikea.com/gb/en/store/bristol",
   "smaland": 1
 },
 {
   "storeName": "Brno",
   "storeNumber": 278,
   "storeImage": "ikea_tempe",
   "address": "Skandinavska  4",
   "zipCode": "61900",
   "city": "Brno",
   "country": "Czech Republic",
   "telephone": "420543539111",
   "size": 25389,
   "roomSettings": 49,
   "realLifeHomes": 3,
   "cashLanes": 24,
   "restaurantSeating": 569,
   "latitude": 49.156112,
   "longitude": 16.627352,
   "webpage": "http://www.ikea.com/cz/cs/store/brno",
   "smaland": 0
 },
 {
   "storeName": "Brussels (Anderlecht)",
   "storeNumber": 482,
   "storeImage": "ikea_tottenham",
   "address": "Chaussee De Mons  1432",
   "zipCode": "1070",
   "city": "Anderlecht",
   "country": "Belgium",
   "telephone": "3225269511",
   "size": 35085,
   "roomSettings": 57,
   "realLifeHomes": 3,
   "cashLanes": 48,
   "restaurantSeating": 650,
   "latitude": 50.811136,
   "longitude": 4.290615,
   "webpage": "http://www.ikea.com/be/nl/store/anderlecht",
   "smaland": 1
 },
 {
   "storeName": "Brussels (Zaventem)",
   "storeNumber": 376,
   "storeImage": "ikea_webley",
   "address": "Weiveldlaan  19",
   "zipCode": "1930",
   "city": "Zaventem",
   "country": "Belgium",
   "telephone": "32488043633",
   "size": 32897,
   "roomSettings": 58,
   "realLifeHomes": 3,
   "cashLanes": 42,
   "restaurantSeating": 645,
   "latitude": 50.871579,
   "longitude": 4.4917988,
   "webpage": "http://www.ikea.com/be/nl/store/zaventem",
   "smaland": 0
 },
 {
   "storeName": "Bucharest",
   "storeNumber": 59,
   "storeImage": "ikea_westchester",
   "address": "Sos. Bucuresti-Ploiesti  Sector 1",
   "zipCode": "13696",
   "city": "Bucharest",
   "country": "Romania",
   "telephone": "40214074532",
   "size": 25034,
   "roomSettings": 55,
   "realLifeHomes": 4,
   "cashLanes": 18,
   "restaurantSeating": 470,
   "latitude": 44.5057443,
   "longitude": 26.0851201,
   "webpage": "http://www.ikea.com/ro/ro/store/bucuresti",
   "smaland": 1
 },
 {
   "storeName": "Budaörs",
   "storeNumber": 182,
   "storeImage": "ikea_brooklyn",
   "address": "Sport Utca  2-4",
   "zipCode": "2040",
   "city": "Budaors",
   "country": "Hungary",
   "telephone": "3623502600",
   "size": 18935,
   "roomSettings": 0,
   "realLifeHomes": 3,
   "cashLanes": 17,
   "restaurantSeating": 320,
   "latitude": 47.456231,
   "longitude": 18.948194,
   "webpage": "http://www.ikea.com/hu/hu/store/budaors",
   "smaland": 1
 },
 {
   "storeName": "Budapest",
   "storeNumber": 180,
   "storeImage": "ikea_burbank",
   "address": "Örs Vezer Tere",
   "zipCode": "1148",
   "city": "Budapest",
   "country": "Hungary",
   "telephone": "3614603100",
   "size": 25174,
   "roomSettings": 0,
   "realLifeHomes": 0,
   "cashLanes": 23,
   "restaurantSeating": 507,
   "latitude": 47.504323,
   "longitude": 19.135221,
   "webpage": "http://www.ikea.com/hu/hu/store/budapest",
   "smaland": 1
 },
 {
   "storeName": "Bursa",
   "storeNumber": 220,
   "storeImage": "ikea_cairo",
   "address": "Yeni Yalova Yolu Uzeri",
   "zipCode": "16220",
   "city": "Bursa",
   "country": "Turkey",
   "telephone": "902242708500",
   "size": 24501,
   "roomSettings": 54,
   "realLifeHomes": 3,
   "cashLanes": 19,
   "restaurantSeating": 854,
   "latitude": 40.267024,
   "longitude": 29.055337,
   "webpage": "http://www.ikea.com.tr/Magaza/Genel/2.aspx",
   "smaland": 1
 },
 {
   "storeName": "Bydgoszcz",
   "storeNumber": 429,
   "storeImage": "ikea_canton",
   "address": "ul. Skandynawska 1",
   "zipCode": "85-776",
   "city": "Bydgoszcz",
   "country": "Poland",
   "telephone": "",
   "size": 0,
   "roomSettings": 0,
   "realLifeHomes": 0,
   "cashLanes": 0,
   "restaurantSeating": 410,
   "latitude": 53.1324,
   "longitude": 18.1194,
   "webpage": "",
   "smaland": 0
 },
 {
   "storeName": "Cadiz (Jerez de la Frontera)",
   "storeNumber": 277,
   "storeImage": "ikea_carson",
   "address": "Tienda IKEA Avenida de Escandinavia S/N",
   "zipCode": "11408",
   "city": "Jerez de la Frontera",
   "country": "Spain",
   "telephone": "34956359100",
   "size": 32312,
   "roomSettings": 52,
   "realLifeHomes": 3,
   "cashLanes": 30,
   "restaurantSeating": 525,
   "latitude": 36.6968573,
   "longitude": -6.1615238,
   "webpage": "http://www.ikea.com/es/es/store/jerez",
   "smaland": 0
 },
 {
   "storeName": "Caen",
   "storeNumber": 199,
   "storeImage": "ikea_elizabeth",
   "address": "Rue De Suisse Normande 970",
   "zipCode": "14123",
   "city": "Fleury Sur Orne",
   "country": "France",
   "telephone": "",
   "size": 29225,
   "roomSettings": 55,
   "realLifeHomes": 2,
   "cashLanes": 29,
   "restaurantSeating": 545,
   "latitude": 49.145586,
   "longitude": -0.364059,
   "webpage": "",
   "smaland": 1
 },
 {
   "storeName": "Cairo",
   "storeNumber": 258,
   "storeImage": "ikea_emeryville",
   "address": "Cairo Festival City",
   "zipCode": "",
   "city": "New Cairo",
   "country": "Egypt",
   "telephone": "",
   "size": 0,
   "roomSettings": 0,
   "realLifeHomes": 0,
   "cashLanes": 25,
   "restaurantSeating": 667,
   "latitude": 30.03005226,
   "longitude": 31.40740156,
   "webpage": "",
   "smaland": 0
 },
 {
   "storeName": "Calgary",
   "storeNumber": 216,
   "storeImage": "ikea_hamburg",
   "address": "11Th Street S.E.  8000",
   "zipCode": "T2H3B2",
   "city": "Calgary",
   "country": "Canada",
   "telephone": "14035382406",
   "size": 27029,
   "roomSettings": 40,
   "realLifeHomes": 3,
   "cashLanes": 35,
   "restaurantSeating": 450,
   "latitude": 50.980876,
   "longitude": -114.043121,
   "webpage": "http://www.ikea.com/ca/en/store/calgary",
   "smaland": 1
 },
 {
   "storeName": "Canberra",
   "storeNumber": 451,
   "storeImage": "ikea_madrid",
   "address": "1030 Majura Road",
   "zipCode": "2609",
   "city": "Majura",
   "country": "Australia",
   "telephone": "",
   "size": 25848,
   "roomSettings": 0,
   "realLifeHomes": 0,
   "cashLanes": 0,
   "restaurantSeating": 340,
   "latitude": -35.295342,
   "longitude": 149.186906,
   "webpage": "",
   "smaland": 0
 },
 {
   "storeName": "Cardiff",
   "storeNumber": 267,
   "storeImage": "ikea_sandiego",
   "address": "Ferry Road (Grangetown)",
   "zipCode": "CF11 0XR",
   "city": "Cardiff",
   "country": "United Kingdom",
   "telephone": "442920729700",
   "size": 25950,
   "roomSettings": 49,
   "realLifeHomes": 3,
   "cashLanes": 0,
   "restaurantSeating": 410,
   "latitude": 51.462752,
   "longitude": -3.188809,
   "webpage": "http://www.ikea.com/gb/en/store/cardiff",
   "smaland": 1
 },
 {
   "storeName": "Casablanca (Zenata)",
   "storeNumber": 269,
   "storeImage": "ikea_tampines",
   "address": "Route Principale 1",
   "zipCode": "28630",
   "city": "Casablanca",
   "country": "Morocco",
   "telephone": "",
   "size": 25051,
   "roomSettings": 52,
   "realLifeHomes": null,
   "cashLanes": 15,
   "restaurantSeating": 500,
   "latitude": 33.6295,
   "longitude": -7.4599,
   "webpage": "",
   "smaland": 1
 },
 {
   "storeName": "Catania",
   "storeNumber": 98,
   "storeImage": "ikea_tempe",
   "address": "Via Passo Cavaliere Cont. Buttaceto",
   "zipCode": "95121",
   "city": "Catania",
   "country": "Italy",
   "telephone": "390958171420",
   "size": 30682,
   "roomSettings": 53,
   "realLifeHomes": 3,
   "cashLanes": 32,
   "restaurantSeating": 422,
   "latitude": 37.447024,
   "longitude": 15.036481,
   "webpage": "http://www.ikea.com/it/it/store/catania",
   "smaland": 0
 },
 {
   "storeName": "Charlotte",
   "storeNumber": 67,
   "storeImage": "ikea_tottenham",
   "address": "8300 IKEA Boulevard",
   "zipCode": "28262",
   "city": "Charlotte",
   "country": "USA",
   "telephone": "17045498067",
   "size": 33073,
   "roomSettings": 45,
   "realLifeHomes": 3,
   "cashLanes": 26,
   "restaurantSeating": 378,
   "latitude": 35.290048,
   "longitude": -80.765819,
   "webpage": "http://www.ikea.com/us/en/store/charlotte",
   "smaland": 0
 },
 {
   "storeName": "Chemnitz",
   "storeNumber": 118,
   "storeImage": "ikea_webley",
   "address": "Im Neefepark  5",
   "zipCode": "9117",
   "city": "Chemnitz",
   "country": "Germany",
   "telephone": "4937123960",
   "size": 20372,
   "roomSettings": 38,
   "realLifeHomes": 3,
   "cashLanes": 13,
   "restaurantSeating": 242,
   "latitude": 50.802281,
   "longitude": 12.859801,
   "webpage": "http://www.ikea.com/de/de/store/chemnitz",
   "smaland": 1
 },
 {
   "storeName": "Chengdu",
   "storeNumber": 466,
   "storeImage": "ikea_westchester",
   "address": "Zhanhua Road  9 (Hi-Tech Zone)",
   "zipCode": "610041",
   "city": "Chengdu",
   "country": "China",
   "telephone": "",
   "size": 23957,
   "roomSettings": 45,
   "realLifeHomes": 3,
   "cashLanes": 27,
   "restaurantSeating": 590,
   "latitude": 30.602258,
   "longitude": 104.060012,
   "webpage": "http://www.ikea.com/cn/en/store/chengdu",
   "smaland": 0
 },
 {
   "storeName": "Chicago (Bolingbrook)",
   "storeNumber": 170,
   "storeImage": "ikea_brooklyn",
   "address": "E. Boughton  750",
   "zipCode": "60440",
   "city": "Bolingbrook",
   "country": "USA",
   "telephone": "",
   "size": 28798,
   "roomSettings": 0,
   "realLifeHomes": 3,
   "cashLanes": 21,
   "restaurantSeating": 244,
   "latitude": 41.727894,
   "longitude": -88.03781,
   "webpage": "http://www.ikea.com/us/en/store/bolingbrook",
   "smaland": 1
 },
 {
   "storeName": "Chicago (Schaumburg)",
   "storeNumber": 210,
   "storeImage": "ikea_burbank",
   "address": "East Mcconner Parkway  1800",
   "zipCode": "60173",
   "city": "Schaumburg",
   "country": "USA",
   "telephone": "",
   "size": 41305,
   "roomSettings": 55,
   "realLifeHomes": 1,
   "cashLanes": 30,
   "restaurantSeating": 380,
   "latitude": 42.0567759,
   "longitude": -88.0361381,
   "webpage": "http://www.ikea.com/us/en/store/schaumburg",
   "smaland": 0
 },
 {
   "storeName": "Chongqing",
   "storeNumber": 330,
   "storeImage": "ikea_cairo",
   "address": "R611 Bl. A Youth Dt No.106 Jinyu Av",
   "zipCode": "401122",
   "city": "Chongqing",
   "country": "China",
   "telephone": "8615216793016",
   "size": 45200,
   "roomSettings": 50,
   "realLifeHomes": 5,
   "cashLanes": 28,
   "restaurantSeating": 710,
   "latitude": 29.633588,
   "longitude": 106.56749,
   "webpage": "",
   "smaland": 1
 },
 {
   "storeName": "Cincinnati (West Chester)",
   "storeNumber": 175,
   "storeImage": "ikea_canton",
   "address": "Ikea Way  9500",
   "zipCode": "45069",
   "city": "West Chester",
   "country": "USA",
   "telephone": "15137799195",
   "size": 28950,
   "roomSettings": 48,
   "realLifeHomes": 3,
   "cashLanes": 26,
   "restaurantSeating": 500,
   "latitude": 39.316022,
   "longitude": -84.433966,
   "webpage": "http://www.ikea.com/us/en/store/west_chester",
   "smaland": 1
 },
 {
   "storeName": "Clermont-Ferrand",
   "storeNumber": 345,
   "storeImage": "ikea_carson",
   "address": "19 boulevard Louis Chartoire",
   "zipCode": "63100",
   "city": "Clermont-Ferrand",
   "country": "France",
   "telephone": "",
   "size": 33450,
   "roomSettings": 55,
   "realLifeHomes": 3,
   "cashLanes": 27,
   "restaurantSeating": 454,
   "latitude": 45.804,
   "longitude": 3.139,
   "webpage": "",
   "smaland": 1
 },
 {
   "storeName": "Cologne (Am Butzweiler)",
   "storeNumber": 102,
   "storeImage": "ikea_elizabeth",
   "address": "Butzweiler Straße 51",
   "zipCode": "50829",
   "city": "Köln",
   "country": "Germany",
   "telephone": "46221534370",
   "size": 41217,
   "roomSettings": 51,
   "realLifeHomes": 3,
   "cashLanes": 49,
   "restaurantSeating": 706,
   "latitude": 50.984975,
   "longitude": 6.900076,
   "webpage": "http://www.ikea.com/de/de/store/koeln_butzweilerhof",
   "smaland": 1
 },
 {
   "storeName": "Cologne (Godorf)",
   "storeNumber": 147,
   "storeImage": "ikea_emeryville",
   "address": "Godorfer Hauptstrasse  171",
   "zipCode": "50997",
   "city": "Köln",
   "country": "Germany",
   "telephone": "4922363240",
   "size": 34324,
   "roomSettings": 40,
   "realLifeHomes": 3,
   "cashLanes": 42,
   "restaurantSeating": 544,
   "latitude": 50.862,
   "longitude": 6.971147,
   "webpage": "http://www.ikea.com/de/de/store/koeln_godorf",
   "smaland": 0
 },
 {
   "storeName": "Copenhagen (Gentofte)",
   "storeNumber": 121,
   "storeImage": "ikea_hamburg",
   "address": "Nybrovej  2",
   "zipCode": "2820",
   "city": "Gentofte",
   "country": "Denmark",
   "telephone": "4543590001",
   "size": 20567,
   "roomSettings": 0,
   "realLifeHomes": 0,
   "cashLanes": 26,
   "restaurantSeating": 380,
   "latitude": 55.753365,
   "longitude": 12.520163,
   "webpage": "http://www.ikea.com/dk/da/store/gentofte",
   "smaland": 0
 },
 {
   "storeName": "Copenhagen (Tåstrup)",
   "storeNumber": 94,
   "storeImage": "ikea_madrid",
   "address": "Mårkaervej  15  Postbox 150",
   "zipCode": "2630",
   "city": "Tåstrup",
   "country": "Denmark",
   "telephone": "4543590201",
   "size": 37047,
   "roomSettings": 55,
   "realLifeHomes": 3,
   "cashLanes": 48,
   "restaurantSeating": 605,
   "latitude": 55.659457,
   "longitude": 12.286497,
   "webpage": "http://www.ikea.com/dk/da/store/taastrup",
   "smaland": 1
 },
 {
   "storeName": "Corunna",
   "storeNumber": 502,
   "storeImage": "ikea_sandiego",
   "address": "Carretera Banos de Arteixo s/n Centro Comercial Marineda City Polígono Industrial A Grela",
   "zipCode": "15008",
   "city": "A Coruna",
   "country": "Spain",
   "telephone": "351229980609",
   "size": 33544,
   "roomSettings": 50,
   "realLifeHomes": 3,
   "cashLanes": 30,
   "restaurantSeating": 504,
   "latitude": 43.3445439,
   "longitude": -8.4289038,
   "webpage": "http://www.ikea.com/es/es/store/acoruna",
   "smaland": 0
 },
 {
   "storeName": "Coventry",
   "storeNumber": 150,
   "storeImage": "ikea_tampines",
   "address": "Queen Victoria Road  25",
   "zipCode": "CV1 3AB",
   "city": "Coventry",
   "country": "United Kingdom",
   "telephone": "442476234000",
   "size": 28794,
   "roomSettings": 49,
   "realLifeHomes": 3,
   "cashLanes": 20,
   "restaurantSeating": 402,
   "latitude": 52.407187,
   "longitude": -1.516746,
   "webpage": "http://www.ikea.com/gb/en/store/coventry",
   "smaland": 1
 },
 {
   "storeName": "Dalian",
   "storeNumber": 495,
   "storeImage": "ikea_tempe",
   "address": "51 Haida South Street  Xigang district",
   "zipCode": "116021",
   "city": "Dalian",
   "country": "China",
   "telephone": "",
   "size": 44083,
   "roomSettings": 59,
   "realLifeHomes": 4,
   "cashLanes": 30,
   "restaurantSeating": 704,
   "latitude": 38.928818,
   "longitude": 121.604018,
   "webpage": "http://www.ikea.com/cn/en/store/dalian",
   "smaland": 0
 },
 {
   "storeName": "Dallas (Frisco)",
   "storeNumber": 183,
   "storeImage": "ikea_tottenham",
   "address": "Ikea Drive  7171",
   "zipCode": "75034",
   "city": "Frisco",
   "country": "USA",
   "telephone": "",
   "size": 28967,
   "roomSettings": 43,
   "realLifeHomes": 3,
   "cashLanes": 25,
   "restaurantSeating": 360,
   "latitude": 33.0939117,
   "longitude": -96.8212455,
   "webpage": "http://www.ikea.com/us/en/store/frisco",
   "smaland": 1
 },
 {
   "storeName": "Delft",
   "storeNumber": 151,
   "storeImage": "ikea_webley",
   "address": "Olof Palmestraat  1",
   "zipCode": "2616 LN",
   "city": "Delft",
   "country": "Netherlands",
   "telephone": "31152150750",
   "size": 33918,
   "roomSettings": 45,
   "realLifeHomes": 4,
   "cashLanes": 34,
   "restaurantSeating": 640,
   "latitude": 52.013594,
   "longitude": 4.3812177,
   "webpage": "http://www.ikea.com/nl/nl/store/delft",
   "smaland": 1
 },
 {
   "storeName": "Denver (Centennial)",
   "storeNumber": 64,
   "storeImage": "ikea_westchester",
   "address": "9800 E IKEA Way",
   "zipCode": "80112",
   "city": "Centennial",
   "country": "USA",
   "telephone": "13037689064",
   "size": 32378,
   "roomSettings": 47,
   "realLifeHomes": 3,
   "cashLanes": 26,
   "restaurantSeating": 436,
   "latitude": 39.571719,
   "longitude": -104.874881,
   "webpage": "http://www.ikea.com/us/en/store/centennial",
   "smaland": 0
 },
 {
   "storeName": "Detroit (Canton)",
   "storeNumber": 26,
   "storeImage": "ikea_brooklyn",
   "address": "Ford Road  41660",
   "zipCode": "48187",
   "city": "Canton",
   "country": "USA",
   "telephone": "17349813026",
   "size": 29352,
   "roomSettings": 52,
   "realLifeHomes": 3,
   "cashLanes": 25,
   "restaurantSeating": 350,
   "latitude": 42.325367,
   "longitude": -83.4515479,
   "webpage": "http://www.ikea.com/us/en/store/canton",
   "smaland": 0
 },
 {
   "storeName": "Dhahran",
   "storeNumber": 65,
   "storeImage": "ikea_burbank",
   "address": "Prince Faisal Bin Fahad Road",
   "zipCode": "31942",
   "city": "Dhahran",
   "country": "Saudi Arabia",
   "telephone": "",
   "size": 21799,
   "roomSettings": 51,
   "realLifeHomes": 3,
   "cashLanes": 15,
   "restaurantSeating": 427,
   "latitude": 26.310227,
   "longitude": 50.162673,
   "webpage": "http://www.ikea.com.sa/en/store/Dhahran/",
   "smaland": 1
 },
 {
   "storeName": "Dijon",
   "storeNumber": 86,
   "storeImage": "ikea_cairo",
   "address": "Rue De Cracovie  1",
   "zipCode": "21000",
   "city": "Dijon",
   "country": "France",
   "telephone": "330380282810",
   "size": 22945,
   "roomSettings": 56,
   "realLifeHomes": 3,
   "cashLanes": 27,
   "restaurantSeating": 450,
   "latitude": 47.340576,
   "longitude": 5.064357,
   "webpage": "",
   "smaland": 0
 },
 {
   "storeName": "Doha",
   "storeNumber": 244,
   "storeImage": "ikea_canton",
   "address": "No. 253, plot 450, al Shamal Road",
   "zipCode": "",
   "city": "Qatar",
   "country": "Qatar",
   "telephone": "",
   "size": 32800,
   "roomSettings": 0,
   "realLifeHomes": 0,
   "cashLanes": 0,
   "restaurantSeating": 550,
   "latitude": 25.280282,
   "longitude": 51.522476,
   "webpage": "",
   "smaland": 1
 },
 {
   "storeName": "Dortmund (Kamen)",
   "storeNumber": 323,
   "storeImage": "ikea_carson",
   "address": "Kamen Karree  1",
   "zipCode": "59174",
   "city": "Kamen",
   "country": "Germany",
   "telephone": "492307207200",
   "size": 32010,
   "roomSettings": 49,
   "realLifeHomes": 3,
   "cashLanes": 29,
   "restaurantSeating": 450,
   "latitude": 51.569338,
   "longitude": 7.66924,
   "webpage": "http://www.ikea.com/de/de/store/kamen",
   "smaland": 0
 },
 {
   "storeName": "Dortmund (Kley)",
   "storeNumber": 223,
   "storeImage": "ikea_elizabeth",
   "address": "Borussiastrasse  120",
   "zipCode": "44149",
   "city": "Dortmund",
   "country": "Germany",
   "telephone": "4923165560",
   "size": 30270,
   "roomSettings": 46,
   "realLifeHomes": 3,
   "cashLanes": 35,
   "restaurantSeating": 356,
   "latitude": 51.491123,
   "longitude": 7.369423,
   "webpage": "http://www.ikea.com/de/de/store/dortmund",
   "smaland": 1
 },
 {
   "storeName": "Dresden",
   "storeNumber": 221,
   "storeImage": "ikea_emeryville",
   "address": "Peschelstrasse  25",
   "zipCode": "1139",
   "city": "Dresden",
   "country": "Germany",
   "telephone": "4935125070",
   "size": 27213,
   "roomSettings": 47,
   "realLifeHomes": 3,
   "cashLanes": 29,
   "restaurantSeating": 457,
   "latitude": 51.086338,
   "longitude": 13.694226,
   "webpage": "http://www.ikea.com/de/de/store/dresden",
   "smaland": 1
 },
 {
   "storeName": "Dubai",
   "storeNumber": 218,
   "storeImage": "ikea_hamburg",
   "address": "Dubai Festival City",
   "zipCode": "50618",
   "city": "Dubai",
   "country": "United Arab Emirates",
   "telephone": "9718004532",
   "size": 26170,
   "roomSettings": 53,
   "realLifeHomes": 3,
   "cashLanes": 25,
   "restaurantSeating": 472,
   "latitude": 25.2235,
   "longitude": 55.355629,
   "webpage": "http://www.ikea.com/ae/en/store/dubai",
   "smaland": 1
 },
 {
   "storeName": "Dublin",
   "storeNumber": 38,
   "storeImage": "ikea_madrid",
   "address": "St. Margaret's Road  Ballymun",
   "zipCode": "11",
   "city": "Dublin",
   "country": "Ireland",
   "telephone": "35318930100",
   "size": 33800,
   "roomSettings": 53,
   "realLifeHomes": 3,
   "cashLanes": 33,
   "restaurantSeating": 530,
   "latitude": 53.407026,
   "longitude": -6.276056,
   "webpage": "http://www.ikea.com/ie/en/store/dublin",
   "smaland": 1
 },
 {
   "storeName": "Duisburg",
   "storeNumber": 425,
   "storeImage": "ikea_sandiego",
   "address": "Beecker Strasse  80",
   "zipCode": "47166",
   "city": "Duisburg",
   "country": "Germany",
   "telephone": "4920373940",
   "size": 33438,
   "roomSettings": 53,
   "realLifeHomes": 3,
   "cashLanes": 36,
   "restaurantSeating": 488,
   "latitude": 51.48211,
   "longitude": 6.763812,
   "webpage": "http://www.ikea.com/de/de/store/duisburg",
   "smaland": 0
 },
 {
   "storeName": "Duiven",
   "storeNumber": 272,
   "storeImage": "ikea_tampines",
   "address": "Biograaf  2",
   "zipCode": "6921 RK",
   "city": "Duiven",
   "country": "Netherlands",
   "telephone": "31263196777",
   "size": 38103,
   "roomSettings": 51,
   "realLifeHomes": 2,
   "cashLanes": 31,
   "restaurantSeating": 695,
   "latitude": 51.9663139,
   "longitude": 5.9973192,
   "webpage": "http://www.ikea.com/nl/nl/store/duiven",
   "smaland": 0
 },
 {
   "storeName": "Düsseldorf (Kaarst)",
   "storeNumber": 73,
   "storeImage": "ikea_tempe",
   "address": "Düsselstrasse  2-6",
   "zipCode": "41564",
   "city": "Kaarst",
   "country": "Germany",
   "telephone": "49213151270",
   "size": 13519,
   "roomSettings": 30,
   "realLifeHomes": 2,
   "cashLanes": 20,
   "restaurantSeating": 222,
   "latitude": 51.217991,
   "longitude": 6.629683,
   "webpage": "http://www.ikea.com/de/de/store/kaarst",
   "smaland": 1
 },
 {
   "storeName": "Düsseldorf (Reisholz)",
   "storeNumber": 321,
   "storeImage": "ikea_tottenham",
   "address": "Oerschbachstrasse  75",
   "zipCode": "40589",
   "city": "Düsseldorf-Süd",
   "country": "Germany",
   "telephone": "49211779030",
   "size": 37681,
   "roomSettings": 61,
   "realLifeHomes": 3,
   "cashLanes": 38,
   "restaurantSeating": 460,
   "latitude": 51.1876,
   "longitude": 6.84904,
   "webpage": "http://www.ikea.com/de/de/store/duesseldorf",
   "smaland": 0
 },
 {
   "storeName": "Edinburgh",
   "storeNumber": 265,
   "storeImage": "ikea_webley",
   "address": "Straiton Road (Loanhead)",
   "zipCode": "EH20 9P",
   "city": "Edinburgh",
   "country": "United Kingdom",
   "telephone": "441314406600",
   "size": 20635,
   "roomSettings": 44,
   "realLifeHomes": 3,
   "cashLanes": 19,
   "restaurantSeating": 275,
   "latitude": 55.879823,
   "longitude": -3.168499,
   "webpage": "http://www.ikea.com/gb/en/store/edinburgh",
   "smaland": 1
 },
 {
   "storeName": "Edmonton",
   "storeNumber": 349,
   "storeImage": "ikea_westchester",
   "address": "102th Street N.W.  1311",
   "zipCode": "T6N 1M3",
   "city": "Edmonton",
   "country": "Canada",
   "telephone": "17804959686",
   "size": 28179,
   "roomSettings": 48,
   "realLifeHomes": 2,
   "cashLanes": 34,
   "restaurantSeating": 310,
   "latitude": 53.44358,
   "longitude": -113.489319,
   "webpage": "http://www.ikea.com/ca/en/store/edmonton",
   "smaland": 0
 },
 {
   "storeName": "Eindhoven",
   "storeNumber": 87,
   "storeImage": "ikea_brooklyn",
   "address": "Ekkersrijt  4089",
   "zipCode": "5692 DB",
   "city": "Son",
   "country": "Netherlands",
   "telephone": "31499462400",
   "size": 31595,
   "roomSettings": 59,
   "realLifeHomes": 2,
   "cashLanes": 27,
   "restaurantSeating": 695,
   "latitude": 51.4982477,
   "longitude": 5.4708475,
   "webpage": "http://www.ikea.com/nl/nl/store/eindhoven",
   "smaland": 1
 },
 {
   "storeName": "Ekaterinburg",
   "storeNumber": 342,
   "storeImage": "ikea_burbank",
   "address": "Ulitsa Metallurgov  87",
   "zipCode": "620043",
   "city": "Ekaterinburg",
   "country": "Russia",
   "telephone": "",
   "size": 28905,
   "roomSettings": 55,
   "realLifeHomes": 3,
   "cashLanes": 32,
   "restaurantSeating": 640,
   "latitude": 56.823787,
   "longitude": 60.502253,
   "webpage": "http://www.ikea.com/ru/ru/",
   "smaland": 1
 },
 {
   "storeName": "Erfurt",
   "storeNumber": 396,
   "storeImage": "ikea_cairo",
   "address": "Eisenacher Strasse  50",
   "zipCode": "99094",
   "city": "Erfurt",
   "country": "Germany",
   "telephone": "4936121955",
   "size": 27902,
   "roomSettings": 50,
   "realLifeHomes": 3,
   "cashLanes": 28,
   "restaurantSeating": 410,
   "latitude": 50.959273,
   "longitude": 10.949036,
   "webpage": "http://www.ikea.com/de/de/store/erfurt",
   "smaland": 0
 },
 {
   "storeName": "Essen",
   "storeNumber": 148,
   "storeImage": "ikea_canton",
   "address": "Altendorfer Strasse  2",
   "zipCode": "45127",
   "city": "Essen",
   "country": "Germany",
   "telephone": "4920124260",
   "size": 21747,
   "roomSettings": 37,
   "realLifeHomes": 3,
   "cashLanes": 31,
   "restaurantSeating": 330,
   "latitude": 51.459891,
   "longitude": 7.001119,
   "webpage": "http://www.ikea.com/de/de/store/essen",
   "smaland": 0
 },
 {
   "storeName": "Fishers",
   "storeNumber": 999,
   "storeImage": "ikea_fishers",
   "address": "11400 IKEA Way",
   "zipCode": "46037",
   "city": "Fishers",
   "country": "USA",
   "telephone": "8888884532",
   "size": 27000,
   "roomSettings": 50,
   "realLifeHomes": 3,
   "cashLanes": 32,
   "restaurantSeating": 410,
   "latitude": 39.9534203,
   "longitude": -86.0095676,
   "webpage": "https://www.ikea.com/us/en/stores/fishers/",
   "smaland": 1
 },
 {
   "storeName": "Florence (Sesto Fiorentino)",
   "storeNumber": 352,
   "storeImage": "ikea_carson",
   "address": "Via Francesco Redi 1",
   "zipCode": "50019",
   "city": "Sesto Fiorentino",
   "country": "Italy",
   "telephone": "",
   "size": 31834,
   "roomSettings": 50,
   "realLifeHomes": 3,
   "cashLanes": 40,
   "restaurantSeating": 400,
   "latitude": 43.8078454,
   "longitude": 11.1868394,
   "webpage": "",
   "smaland": 1
 },
 {
   "storeName": "Forshan",
   "storeNumber": 459,
   "storeImage": "ikea_elizabeth",
   "address": "No. 18 North Guilan Road ",
   "zipCode": "",
   "city": "Forshan",
   "country": "China",
   "telephone": "",
   "size": 40311,
   "roomSettings": 0,
   "realLifeHomes": 0,
   "cashLanes": 0,
   "restaurantSeating": 802,
   "latitude": 23.0611478,
   "longitude": 113.155489,
   "webpage": "http://www.ikea.com/cn/en/store/foshan/store_info",
   "smaland": 0
 },
 {
   "storeName": "Fort Lauderdale (Sunrise)",
   "storeNumber": 207,
   "storeImage": "ikea_emeryville",
   "address": "151 NW 136 Street",
   "zipCode": "33325",
   "city": "Sunrise",
   "country": "USA",
   "telephone": "",
   "size": 24721,
   "roomSettings": 50,
   "realLifeHomes": 3,
   "cashLanes": 27,
   "restaurantSeating": 410,
   "latitude": 26.122048,
   "longitude": -80.331999,
   "webpage": "",
   "smaland": 1
 },
 {
   "storeName": "Frankfurt (Hanau)",
   "storeNumber": 222,
   "storeImage": "ikea_hamburg",
   "address": "Oderstrasse  21",
   "zipCode": "63452",
   "city": "Hanau",
   "country": "Germany",
   "telephone": "49618118070",
   "size": 28157,
   "roomSettings": 44,
   "realLifeHomes": 3,
   "cashLanes": 24,
   "restaurantSeating": 336,
   "latitude": 50.148505,
   "longitude": 8.945185,
   "webpage": "http://www.ikea.com/de/de/store/hanau",
   "smaland": 0
 },
 {
   "storeName": "Frankfurt (Nieder-Eschbach)",
   "storeNumber": 393,
   "storeImage": "ikea_madrid",
   "address": "Züricher Strasse  7",
   "zipCode": "60437",
   "city": "Frankfurt",
   "country": "Germany",
   "telephone": "49699509010",
   "size": 38292,
   "roomSettings": 62,
   "realLifeHomes": 3,
   "cashLanes": 38,
   "restaurantSeating": 460,
   "latitude": 50.196528,
   "longitude": 8.654867,
   "webpage": "http://www.ikea.com/de/de/store/frankfurt",
   "smaland": 1
 },
 {
   "storeName": "Freiburg",
   "storeNumber": 320,
   "storeImage": "ikea_sandiego",
   "address": "Hermann Mitsch Strasse  61",
   "zipCode": "79108",
   "city": "Freiburg",
   "country": "Germany",
   "telephone": "4976150340",
   "size": 24973,
   "roomSettings": 41,
   "realLifeHomes": 3,
   "cashLanes": 32,
   "restaurantSeating": 462,
   "latitude": 48.025535,
   "longitude": 7.834967,
   "webpage": "http://www.ikea.com/de/de/store/freiburg",
   "smaland": 1
 },
 {
   "storeName": "Fukuoka",
   "storeNumber": 189,
   "storeImage": "ikea_tampines",
   "address": "2-9-1 Chuou Ekimae",
   "zipCode": "811-0120",
   "city": "Fukuoka",
   "country": "Japan",
   "telephone": "",
   "size": 29829,
   "roomSettings": 44,
   "realLifeHomes": 7,
   "cashLanes": 21,
   "restaurantSeating": 679,
   "latitude": 33.717,
   "longitude": 130.433,
   "webpage": "",
   "smaland": 1
 },
 {
   "storeName": "Gävle",
   "storeNumber": 122,
   "storeImage": "ikea_tempe",
   "address": "Valbo Kopcentrum",
   "zipCode": "81802",
   "city": "Valbo",
   "country": "Sweden",
   "telephone": "",
   "size": 13068,
   "roomSettings": 22,
   "realLifeHomes": 3,
   "cashLanes": 12,
   "restaurantSeating": 273,
   "latitude": 60.633944,
   "longitude": 16.99,
   "webpage": "",
   "smaland": 1
 },
 {
   "storeName": "Gdansk",
   "storeNumber": 203,
   "storeImage": "ikea_tottenham",
   "address": "Ul. Zlota Karczma  26",
   "zipCode": "80298",
   "city": "Gdansk",
   "country": "Poland",
   "telephone": "48587699300",
   "size": 25365,
   "roomSettings": 61,
   "realLifeHomes": 2,
   "cashLanes": 20,
   "restaurantSeating": 630,
   "latitude": 54.37349,
   "longitude": 18.51719,
   "webpage": "http://www.ikea.com/pl/pl/store/gdansk",
   "smaland": 0
 },
 {
   "storeName": "Geneva (Vernier)",
   "storeNumber": 918,
   "storeImage": "ikea_webley",
   "address": "156 ROUTE DE VERNIER",
   "zipCode": "1214",
   "city": "Vernier",
   "country": "Switzerland",
   "telephone": "46588538100",
   "size": 32274,
   "roomSettings": 37,
   "realLifeHomes": 3,
   "cashLanes": 30,
   "restaurantSeating": 480,
   "latitude": 46.219558,
   "longitude": 6.0945667,
   "webpage": "http://www.ikea.com/ch/fr/store/vernier",
   "smaland": 0
 },
 {
   "storeName": "Genova",
   "storeNumber": 232,
   "storeImage": "ikea_westchester",
   "address": "Via Luigi Perini  5",
   "zipCode": "16152",
   "city": "Genova",
   "country": "Italy",
   "telephone": "390106068858",
   "size": 19135,
   "roomSettings": 52,
   "realLifeHomes": 3,
   "cashLanes": 31,
   "restaurantSeating": 250,
   "latitude": 44.4236333,
   "longitude": 8.8839579,
   "webpage": "http://www.ikea.com/it/it/store/genova_campi",
   "smaland": 1
 },
 {
   "storeName": "Ghent",
   "storeNumber": 169,
   "storeImage": "ikea_brooklyn",
   "address": "Maaltekouter 2",
   "zipCode": "9051",
   "city": "Gent",
   "country": "Belgium",
   "telephone": "3292418590",
   "size": 35438,
   "roomSettings": 52,
   "realLifeHomes": 3,
   "cashLanes": 45,
   "restaurantSeating": 665,
   "latitude": 51.0231519,
   "longitude": 3.6875513,
   "webpage": "http://www.ikea.com/be/nl/store/gent",
   "smaland": 0
 },
 {
   "storeName": "Glasgow",
   "storeNumber": 266,
   "storeImage": "ikea_burbank",
   "address": "Renfrew Road  500",
   "zipCode": "G51 4SP",
   "city": "Glasgow",
   "country": "United Kingdom",
   "telephone": "441418858900",
   "size": 28900,
   "roomSettings": 54,
   "realLifeHomes": 3,
   "cashLanes": 40,
   "restaurantSeating": 550,
   "latitude": 55.869228,
   "longitude": -4.358156,
   "webpage": "http://www.ikea.com/gb/en/store/glasgow",
   "smaland": 1
 },
 {
   "storeName": "Gothenburg (Bäckebol)",
   "storeNumber": 398,
   "storeImage": "ikea_cairo",
   "address": "Transportgatan  23",
   "zipCode": "42246",
   "city": "Hisings Backa",
   "country": "Sweden",
   "telephone": "4631869101",
   "size": 29018,
   "roomSettings": 50,
   "realLifeHomes": 3,
   "cashLanes": 34,
   "restaurantSeating": 480,
   "latitude": 57.774564,
   "longitude": 12.001956,
   "webpage": "http://www.ikea.com/se/sv/store/goteborg_backebol",
   "smaland": 0
 },
 {
   "storeName": "Gothenburg (Kållered)",
   "storeNumber": 14,
   "storeImage": "ikea_canton",
   "address": "Ekenleden  2",
   "zipCode": "42836",
   "city": "Kållered",
   "country": "Sweden",
   "telephone": "4631869000",
   "size": 30489,
   "roomSettings": 41,
   "realLifeHomes": 3,
   "cashLanes": 21,
   "restaurantSeating": 475,
   "latitude": 57.603638,
   "longitude": 12.047932,
   "webpage": "http://www.ikea.com/se/sv/store/goteborg_kallered",
   "smaland": 1
 },
 {
   "storeName": "Gran Canaria (Las Palmas)",
   "storeNumber": 251,
   "storeImage": "ikea_carson",
   "address": "Parque Comercial La Estrella 7",
   "zipCode": "35219",
   "city": "La Mareta",
   "country": "Spain",
   "telephone": "",
   "size": 15469,
   "roomSettings": 29,
   "realLifeHomes": 3,
   "cashLanes": 10,
   "restaurantSeating": 300,
   "latitude": 27.9529742,
   "longitude": -15.382277,
   "webpage": "",
   "smaland": 1
 },
 {
   "storeName": "Graz",
   "storeNumber": 387,
   "storeImage": "ikea_elizabeth",
   "address": "Weblingergürtel  31",
   "zipCode": "8054",
   "city": "Graz",
   "country": "Austria",
   "telephone": "43316293100",
   "size": 31169,
   "roomSettings": 50,
   "realLifeHomes": 3,
   "cashLanes": 24,
   "restaurantSeating": 367,
   "latitude": 47.033535,
   "longitude": 15.422593,
   "webpage": "http://www.ikea.com/at/de/store/graz",
   "smaland": 0
 },
 {
   "storeName": "Grenoble (Saint Martin d'Hères)",
   "storeNumber": 435,
   "storeImage": "ikea_emeryville",
   "address": "Av Gabriel Peri  150",
   "zipCode": "38401",
   "city": "Grenoble",
   "country": "France",
   "telephone": "330438241200",
   "size": 25029,
   "roomSettings": 53,
   "realLifeHomes": 3,
   "cashLanes": 28,
   "restaurantSeating": 456,
   "latitude": 45.18135,
   "longitude": 5.776,
   "webpage": "http://www.ikea.com/fr/fr/store/grenoble",
   "smaland": 0
 },
 {
   "storeName": "Groningen",
   "storeNumber": 404,
   "storeImage": "ikea_hamburg",
   "address": "Sontweg  9",
   "zipCode": "9723 AT",
   "city": "Groningen",
   "country": "Netherlands",
   "telephone": "31505900500",
   "size": 40266,
   "roomSettings": 49,
   "realLifeHomes": 3,
   "cashLanes": 21,
   "restaurantSeating": 580,
   "latitude": 53.2167412,
   "longitude": 6.5889033,
   "webpage": "http://www.ikea.com/nl/nl/store/groningen",
   "smaland": 1
 },
 {
   "storeName": "Guangzhou",
   "storeNumber": 465,
   "storeImage": "ikea_madrid",
   "address": "Middle Lin He Road  156",
   "zipCode": "510610",
   "city": "Guangzhou",
   "country": "China",
   "telephone": "862085622345",
   "size": 16048,
   "roomSettings": 32,
   "realLifeHomes": 2,
   "cashLanes": 24,
   "restaurantSeating": 172,
   "latitude": 23.148654,
   "longitude": 113.320594,
   "webpage": "http://www.ikea.com/cn/en/store/guangzhou",
   "smaland": 0
 },
 {
   "storeName": "Haarlem",
   "storeNumber": 378,
   "storeImage": "ikea_sandiego",
   "address": "Laan Van Decima  1",
   "zipCode": "2031CX",
   "city": "Haarlem",
   "country": "Netherlands",
   "telephone": "31235173520",
   "size": 38166,
   "roomSettings": 61,
   "realLifeHomes": 3,
   "cashLanes": 24,
   "restaurantSeating": 550,
   "latitude": 52.3845086,
   "longitude": 4.6690908,
   "webpage": "http://www.ikea.com/nl/nl/store/haarlem",
   "smaland": 1
 },
 {
   "storeName": "Hamar - Ringsaker",
   "storeNumber": 390,
   "storeImage": "ikea_tampines",
   "address": "Krokstadvegen 4",
   "zipCode": "N-2320",
   "city": "FURNES",
   "country": "Norway",
   "telephone": "",
   "size": 0,
   "roomSettings": 0,
   "realLifeHomes": 0,
   "cashLanes": 0,
   "restaurantSeating": 0,
   "latitude": 60.8402,
   "longitude": 11.0575,
   "webpage": "",
   "smaland": 0
 },
 {
   "storeName": "Hamburg (Altona)",
   "storeNumber": 245,
   "storeImage": "ikea_tempe",
   "address": "Grosse Bergstrasse",
   "zipCode": "22767",
   "city": "Hamburg",
   "country": "Germany",
   "telephone": "",
   "size": 0,
   "roomSettings": 0,
   "realLifeHomes": 0,
   "cashLanes": 0,
   "restaurantSeating": 386,
   "latitude": 53.55225,
   "longitude": 9.94431,
   "webpage": "",
   "smaland": 1
 },
 {
   "storeName": "Hamburg (Moorfleet)",
   "storeNumber": 325,
   "storeImage": "ikea_tottenham",
   "address": "Unterer Landweg 77",
   "zipCode": "22113",
   "city": "Hamburg",
   "country": "Germany",
   "telephone": "4940819950",
   "size": 38086,
   "roomSettings": 50,
   "realLifeHomes": 3,
   "cashLanes": 45,
   "restaurantSeating": 555,
   "latitude": 53.510624,
   "longitude": 10.09285,
   "webpage": "",
   "smaland": 1
 },
 {
   "storeName": "Hamburg (Schnelsen)",
   "storeNumber": 146,
   "storeImage": "ikea_webley",
   "address": "Wunderbrunnen 1",
   "zipCode": "22457",
   "city": "Hamburg",
   "country": "Germany",
   "telephone": "",
   "size": 30568,
   "roomSettings": 62,
   "realLifeHomes": 2,
   "cashLanes": 39,
   "restaurantSeating": 443,
   "latitude": 53.648953,
   "longitude": 9.927858,
   "webpage": "",
   "smaland": 1
 },
 {
   "storeName": "Hangzhou",
   "storeNumber": 401,
   "storeImage": "ikea_westchester",
   "address": "R1101 Bl. 1, No. 158 West Qiaomo Rd",
   "zipCode": "311101",
   "city": "Yuhang District, Hangzhou",
   "country": "China",
   "telephone": "",
   "size": 43416,
   "roomSettings": 0,
   "realLifeHomes": 0,
   "cashLanes": 0,
   "restaurantSeating": 660,
   "latitude": 30.352,
   "longitude": 120.2857,
   "webpage": "",
   "smaland": 1
 },
 {
   "storeName": "Hannover (Burgwedel)",
   "storeNumber": 226,
   "storeImage": "ikea_brooklyn",
   "address": "Iserhägener Strasse  14",
   "zipCode": "30938",
   "city": "Hannover",
   "country": "Germany",
   "telephone": "4951399800",
   "size": 23582,
   "roomSettings": 40,
   "realLifeHomes": 3,
   "cashLanes": 24,
   "restaurantSeating": 271,
   "latitude": 52.492125,
   "longitude": 9.838025,
   "webpage": "http://www.ikea.com/de/de/store/grossburgwedel",
   "smaland": 0
 },
 {
   "storeName": "Hannover (Expo Park)",
   "storeNumber": 187,
   "storeImage": "ikea_burbank",
   "address": "Strasse Der Nationen  10",
   "zipCode": "30539",
   "city": "Hannover",
   "country": "Germany",
   "telephone": "",
   "size": 35423,
   "roomSettings": 53,
   "realLifeHomes": 3,
   "cashLanes": 31,
   "restaurantSeating": 551,
   "latitude": 52.313492,
   "longitude": 9.817251,
   "webpage": "http://www.ikea.com/de/de/store/expopark_hannover",
   "smaland": 0
 },
 {
   "storeName": "Haparanda",
   "storeNumber": 470,
   "storeImage": "ikea_cairo",
   "address": "Norrskensvägen  2",
   "zipCode": "95336",
   "city": "Haparanda",
   "country": "Sweden",
   "telephone": "4692210979",
   "size": 25999,
   "roomSettings": 45,
   "realLifeHomes": 3,
   "cashLanes": 32,
   "restaurantSeating": 503,
   "latitude": 65.843348,
   "longitude": 24.132146,
   "webpage": "http://www.ikea.com/se/sv/store/haparanda",
   "smaland": 1
 },
 {
   "storeName": "Hasselt",
   "storeNumber": 452,
   "storeImage": "ikea_canton",
   "address": "Biezenstraat 45",
   "zipCode": "3500",
   "city": "Hasselt",
   "country": "Belgium",
   "telephone": "",
   "size": 0,
   "roomSettings": 0,
   "realLifeHomes": 0,
   "cashLanes": 0,
   "restaurantSeating": 450,
   "latitude": 50.9186,
   "longitude": 5.32,
   "webpage": "",
   "smaland": 0
 },
 {
   "storeName": "Heerlen",
   "storeNumber": 89,
   "storeImage": "ikea_carson",
   "address": "In De Cramer  142",
   "zipCode": "6412 PM",
   "city": "Heerlen",
   "country": "Netherlands",
   "telephone": "31455759859",
   "size": 36491,
   "roomSettings": 48,
   "realLifeHomes": 3,
   "cashLanes": 38,
   "restaurantSeating": 640,
   "latitude": 50.8991522,
   "longitude": 5.945731,
   "webpage": "http://www.ikea.com/nl/nl/store/heerlen",
   "smaland": 1
 },
 {
   "storeName": "Heidelberg (Walldorf)",
   "storeNumber": 75,
   "storeImage": "ikea_elizabeth",
   "address": "Josef Reiert Strasse  9",
   "zipCode": "69190",
   "city": "Walldorf",
   "country": "Germany",
   "telephone": "4962276060",
   "size": 28869,
   "roomSettings": 47,
   "realLifeHomes": 3,
   "cashLanes": 33,
   "restaurantSeating": 370,
   "latitude": 49.3058226,
   "longitude": 8.6297297,
   "webpage": "http://www.ikea.com/de/de/store/walldorf",
   "smaland": 0
 },
 {
   "storeName": "Helsingborg",
   "storeNumber": 468,
   "storeImage": "ikea_emeryville",
   "address": "Marknadsvägen",
   "zipCode": "26036",
   "city": "Ödåkra",
   "country": "Sweden",
   "telephone": "4642252545",
   "size": 38310,
   "roomSettings": 59,
   "realLifeHomes": 3,
   "cashLanes": 36,
   "restaurantSeating": 530,
   "latitude": 56.0919547,
   "longitude": 12.7606393,
   "webpage": "http://www.ikea.com/se/sv/store/helsingborg",
   "smaland": 1
 },
 {
   "storeName": "Helsinki (Espoo)",
   "storeNumber": 202,
   "storeImage": "ikea_hamburg",
   "address": "Espoontie 21",
   "zipCode": "2740",
   "city": "Espoo",
   "country": "Finland",
   "telephone": "3589348290",
   "size": 18880,
   "roomSettings": 31,
   "realLifeHomes": 3,
   "cashLanes": 24,
   "restaurantSeating": 198,
   "latitude": 60.216856,
   "longitude": 24.662496,
   "webpage": "http://www.ikea.com/fi/fi/store/espoo",
   "smaland": 1
 },
 {
   "storeName": "Helsinki (Vantaa)",
   "storeNumber": 422,
   "storeImage": "ikea_madrid",
   "address": "Porttisuontie  18",
   "zipCode": "1200",
   "city": "Vantaa",
   "country": "Finland",
   "telephone": "358934829229",
   "size": 36731,
   "roomSettings": 52,
   "realLifeHomes": 3,
   "cashLanes": 34,
   "restaurantSeating": 550,
   "latitude": 60.276724,
   "longitude": 25.084319,
   "webpage": "http://www.ikea.com/fi/fi/store/vantaa",
   "smaland": 0
 },
 {
   "storeName": "Hengelo",
   "storeNumber": 312,
   "storeImage": "ikea_sandiego",
   "address": "Het Plein  100",
   "zipCode": "7559 SR",
   "city": "Hengelo",
   "country": "Netherlands",
   "telephone": "31742654100",
   "size": 31858,
   "roomSettings": 52,
   "realLifeHomes": 2,
   "cashLanes": 23,
   "restaurantSeating": 450,
   "latitude": 52.2886763,
   "longitude": 6.7686595,
   "webpage": "http://www.ikea.com/nl/nl/store/hengelo",
   "smaland": 0
 },
 {
   "storeName": "Hong Kong (Causeway Bay)",
   "storeNumber": 62,
   "storeImage": "ikea_tampines",
   "address": "Gloucester Road  310",
   "zipCode": "",
   "city": "Hong Kong SAR",
   "country": "China",
   "telephone": "85228811133",
   "size": 6079,
   "roomSettings": 31,
   "realLifeHomes": 1,
   "cashLanes": 13,
   "restaurantSeating": 0,
   "latitude": 22.280867,
   "longitude": 114.186211,
   "webpage": "http://www.ikea.com/hk/en/store/causeway_bay",
   "smaland": 1
 },
 {
   "storeName": "Hong Kong (Kowloon Bay)",
   "storeNumber": 71,
   "storeImage": "ikea_tempe",
   "address": "Shop Unit 401 Megabox 38 Wang Chiu Road",
   "zipCode": "",
   "city": "Kowloon",
   "country": "China",
   "telephone": "85231911188",
   "size": 7961,
   "roomSettings": 31,
   "realLifeHomes": 3,
   "cashLanes": 10,
   "restaurantSeating": 300,
   "latitude": 22.320798,
   "longitude": 114.213256,
   "webpage": "http://www.ikea.com/hk/en/store/kowloon_bay",
   "smaland": 0
 },
 {
   "storeName": "Hong Kong (Shatin)",
   "storeNumber": 52,
   "storeImage": "ikea_tottenham",
   "address": "Shatin Rural Committee Road  138",
   "zipCode": "",
   "city": "Hong Kong SAR",
   "country": "China",
   "telephone": "85226341688",
   "size": 7335,
   "roomSettings": 34,
   "realLifeHomes": 3,
   "cashLanes": 10,
   "restaurantSeating": 175,
   "latitude": 22.385,
   "longitude": 114.188062,
   "webpage": "http://www.ikea.com/hk/en/store/shatin",
   "smaland": 1
 },
 {
   "storeName": "Houston",
   "storeNumber": 379,
   "storeImage": "ikea_webley",
   "address": "Katy Freeway  7810",
   "zipCode": "77024",
   "city": "Houston",
   "country": "USA",
   "telephone": "",
   "size": 28565,
   "roomSettings": 47,
   "realLifeHomes": 2,
   "cashLanes": 21,
   "restaurantSeating": 228,
   "latitude": 29.7853478,
   "longitude": -95.4715442,
   "webpage": "http://www.ikea.com/us/en/store/houston",
   "smaland": 0
 },
 {
   "storeName": "Innsbruck",
   "storeNumber": 273,
   "storeImage": "ikea_westchester",
   "address": "Amraserseestrasse  56C",
   "zipCode": "6020",
   "city": "Innsbruck",
   "country": "Austria",
   "telephone": "+43-512-390 200 27130",
   "size": 20246,
   "roomSettings": 30,
   "realLifeHomes": 4,
   "cashLanes": 16,
   "restaurantSeating": 256,
   "latitude": 47.261372,
   "longitude": 11.431874,
   "webpage": "http://www.ikea.com/at/de/store/innsbruck",
   "smaland": 1
 },
 {
   "storeName": "Ioannina",
   "storeNumber": 969,
   "storeImage": "ikea_brooklyn",
   "address": "12th km National Road Ioannina",
   "zipCode": "45500",
   "city": "Ag. Dimitrios - Ioannina",
   "country": "Greece",
   "telephone": "302651095400",
   "size": 27699,
   "roomSettings": 45,
   "realLifeHomes": 3,
   "cashLanes": 11,
   "restaurantSeating": 290,
   "latitude": 39.514221,
   "longitude": 20.890381,
   "webpage": "http://www.ikea.gr/default.aspx?page=home",
   "smaland": 1
 },
 {
   "storeName": "Istanbul (Bayrampasa)",
   "storeNumber": 194,
   "storeImage": "ikea_burbank",
   "address": "Forum Istanbul  Kocatepe Mahallesi  Canak Bölgesi",
   "zipCode": "34030",
   "city": "Istanbul",
   "country": "Turkey",
   "telephone": "902024430000",
   "size": 29326,
   "roomSettings": 52,
   "realLifeHomes": 3,
   "cashLanes": 26,
   "restaurantSeating": 730,
   "latitude": 41.044661,
   "longitude": 28.898099,
   "webpage": "http://www.ikea.com.tr/Magaza/Genel/3.aspx",
   "smaland": 1
 },
 {
   "storeName": "Istanbul (Umraniye)",
   "storeNumber": 252,
   "storeImage": "ikea_cairo",
   "address": "Cakmak Mahallesi  243",
   "zipCode": "34770",
   "city": "Istanbul",
   "country": "Turkey",
   "telephone": "902165280555",
   "size": 34244,
   "roomSettings": 47,
   "realLifeHomes": 3,
   "cashLanes": 27,
   "restaurantSeating": 720,
   "latitude": 41.0250689,
   "longitude": 29.1252494,
   "webpage": "http://www.ikea.com.tr/Magaza/Genel/1.aspx",
   "smaland": 1
 },
 {
   "storeName": "Izmir",
   "storeNumber": 253,
   "storeImage": "ikea_canton",
   "address": "Kazim Dirik mah. 372 sk.  34 (Bornova)",
   "zipCode": "35130",
   "city": "Izmir",
   "country": "Turkey",
   "telephone": "902324980800",
   "size": 23153,
   "roomSettings": 51,
   "realLifeHomes": 3,
   "cashLanes": 9,
   "restaurantSeating": 475,
   "latitude": 38.4517376,
   "longitude": 27.2133226,
   "webpage": "http://www.ikea.com.tr/Magaza/Genel/4.aspx",
   "smaland": 0
 },
 {
   "storeName": "Jakarta (Alam Sutera)",
   "storeNumber": 236,
   "storeImage": "ikea_carson",
   "address": "JLRAYA JAKARTA-BOGOR KM.31KEC.",
   "zipCode": "16952",
   "city": "Jakarta",
   "country": "Indonesia",
   "telephone": "622153140070",
   "size": 36478,
   "roomSettings": 0,
   "realLifeHomes": 0,
   "cashLanes": 21,
   "restaurantSeating": 730,
   "latitude": -6.218847,
   "longitude": 106.663911,
   "webpage": "",
   "smaland": 0
 },
 {
   "storeName": "Jeddah",
   "storeNumber": 110,
   "storeImage": "ikea_elizabeth",
   "address": "P.O. Box 8054",
   "zipCode": "21482",
   "city": "Jeddah",
   "country": "Saudi Arabia",
   "telephone": "96626633000",
   "size": 27548,
   "roomSettings": 50,
   "realLifeHomes": 1,
   "cashLanes": 22,
   "restaurantSeating": 500,
   "latitude": 21.557033,
   "longitude": 39.183357,
   "webpage": "http://www.ikea.com.sa/en/store/Jeddah/",
   "smaland": 1
 },
 {
   "storeName": "Jönköping",
   "storeNumber": 109,
   "storeImage": "ikea_emeryville",
   "address": "A6 Center",
   "zipCode": "55011",
   "city": "Jönköping",
   "country": "Sweden",
   "telephone": "4636108800",
   "size": 22849,
   "roomSettings": 41,
   "realLifeHomes": 3,
   "cashLanes": 30,
   "restaurantSeating": 300,
   "latitude": 57.7717283,
   "longitude": 14.2036416,
   "webpage": "http://www.ikea.com/se/sv/store/jonkoping",
   "smaland": 0
 },
 {
   "storeName": "Kaiserslautern",
   "storeNumber": 430,
   "storeImage": "ikea_hamburg",
   "address": "",
   "zipCode": "",
   "city": "Kaiserslautern",
   "country": "Germany",
   "telephone": "",
   "size": 27144,
   "roomSettings": 0,
   "realLifeHomes": 0,
   "cashLanes": 0,
   "restaurantSeating": 310,
   "latitude": 49.4438,
   "longitude": 7.7054,
   "webpage": "",
   "smaland": 1
 },
 {
   "storeName": "Kalmar",
   "storeNumber": 469,
   "storeImage": "ikea_madrid",
   "address": "Bilbyggarvägen",
   "zipCode": "39239",
   "city": "Kalmar",
   "country": "Sweden",
   "telephone": "",
   "size": 26482,
   "roomSettings": 41,
   "realLifeHomes": 3,
   "cashLanes": 27,
   "restaurantSeating": 354,
   "latitude": 56.685534,
   "longitude": 16.321933,
   "webpage": "http://www.ikea.com/se/sv/store/kalmar",
   "smaland": 0
 },
 {
   "storeName": "Kansas City (Merriam)",
   "storeNumber": 374,
   "storeImage": "ikea_sandiego",
   "address": "6000 Ikea Way",
   "zipCode": "66202",
   "city": "Merriam",
   "country": "USA",
   "telephone": "",
   "size": 33352,
   "roomSettings": 0,
   "realLifeHomes": 0,
   "cashLanes": 0,
   "restaurantSeating": 450,
   "latitude": 39.020268,
   "longitude": -94.690358,
   "webpage": "",
   "smaland": 1
 },
 {
   "storeName": "Kaohsiung",
   "storeNumber": 879,
   "storeImage": "ikea_tampines",
   "address": "Jhonghua 5th Rd.  1201 (Cianjhen District)",
   "zipCode": "80661",
   "city": "Kaohsiung",
   "country": "Taiwan",
   "telephone": "88675377688",
   "size": 23863,
   "roomSettings": 52,
   "realLifeHomes": 3,
   "cashLanes": 12,
   "restaurantSeating": 484,
   "latitude": 22.605563,
   "longitude": 120.303773,
   "webpage": "http://www.ikea.com/tw/zh/store/kaohsiung/eng_ikea_KaoHsiung",
   "smaland": 1
 },
 {
   "storeName": "Karlstad",
   "storeNumber": 471,
   "storeImage": "ikea_tempe",
   "address": "Bergviksvägen  43",
   "zipCode": "65346",
   "city": "Karlstad",
   "country": "Sweden",
   "telephone": "",
   "size": 27265,
   "roomSettings": 44,
   "realLifeHomes": 3,
   "cashLanes": 29,
   "restaurantSeating": 415,
   "latitude": 59.378774,
   "longitude": 13.420302,
   "webpage": "http://www.ikea.com/se/sv/store/karlstad",
   "smaland": 0
 },
 {
   "storeName": "Kassel",
   "storeNumber": 174,
   "storeImage": "ikea_tottenham",
   "address": "Heinrich-Hertz Strasse  25",
   "zipCode": "34123",
   "city": "Kassel",
   "country": "Germany",
   "telephone": "4956147570",
   "size": 24829,
   "roomSettings": 38,
   "realLifeHomes": 3,
   "cashLanes": 30,
   "restaurantSeating": 330,
   "latitude": 51.27741,
   "longitude": 9.525173,
   "webpage": "http://www.ikea.com/de/de/store/kassel",
   "smaland": 0
 },
 {
   "storeName": "Katowice",
   "storeNumber": 306,
   "storeImage": "ikea_webley",
   "address": "Aleja Rozdzienskiego  95",
   "zipCode": "40-203",
   "city": "Katowice",
   "country": "Poland",
   "telephone": "48327898000",
   "size": 24911,
   "roomSettings": 48,
   "realLifeHomes": 3,
   "cashLanes": 21,
   "restaurantSeating": 380,
   "latitude": 50.2701497,
   "longitude": 19.0581665,
   "webpage": "http://www.ikea.com/pl/pl/store/katowice",
   "smaland": 1
 },
 {
   "storeName": "Kazan",
   "storeNumber": 341,
   "storeImage": "ikea_westchester",
   "address": "Prospect Pobedy  141",
   "zipCode": "420100",
   "city": "Kazan",
   "country": "Russia",
   "telephone": "",
   "size": 23124,
   "roomSettings": 61,
   "realLifeHomes": 3,
   "cashLanes": 14,
   "restaurantSeating": 760,
   "latitude": 55.778283,
   "longitude": 49.213761,
   "webpage": "http://www.ikea.com/ru/ru/",
   "smaland": 0
 },
 {
   "storeName": "Kiel",
   "storeNumber": 333,
   "storeImage": "ikea_brooklyn",
   "address": "Westring 1",
   "zipCode": "24114",
   "city": "Kiel",
   "country": "Germany",
   "telephone": "",
   "size": 27207,
   "roomSettings": 46,
   "realLifeHomes": 3,
   "cashLanes": 29,
   "restaurantSeating": 398,
   "latitude": 54.313869,
   "longitude": 10.107406,
   "webpage": "",
   "smaland": 1
 },
 {
   "storeName": "Kiryat Ata (Haifa)",
   "storeNumber": 318,
   "storeImage": "ikea_burbank",
   "address": "Tfuzot Israel",
   "zipCode": "2822412",
   "city": "Kiryat Ata",
   "country": "Israel",
   "telephone": "972-4-6804338",
   "size": 0,
   "roomSettings": 51,
   "realLifeHomes": 3,
   "cashLanes": 22,
   "restaurantSeating": 447,
   "latitude": 32.80955,
   "longitude": 35.075525,
   "webpage": "",
   "smaland": 0
 },
 {
   "storeName": "Klagenfurt",
   "storeNumber": 155,
   "storeImage": "ikea_cairo",
   "address": "Görtschitztalstrasse",
   "zipCode": "9020",
   "city": "Klagenfurt",
   "country": "Austria",
   "telephone": "+43 463 440 500 26130",
   "size": 26649,
   "roomSettings": 50,
   "realLifeHomes": 2,
   "cashLanes": 13,
   "restaurantSeating": 211,
   "latitude": 46.637445,
   "longitude": 14.369411,
   "webpage": "http://www.ikea.com/at/de/store/klagenfurt",
   "smaland": 1
 },
 {
   "storeName": "Kobe (Port Island)",
   "storeNumber": 486,
   "storeImage": "ikea_canton",
   "address": "Minatojima Nakamachi  7-1 (Chuo-Ku)",
   "zipCode": "650-0046",
   "city": "Kobe",
   "country": "Japan",
   "telephone": "81783047000",
   "size": 39254,
   "roomSettings": 42,
   "realLifeHomes": 3,
   "cashLanes": 29,
   "restaurantSeating": 798,
   "latitude": 34.664417,
   "longitude": 135.218562,
   "webpage": "http://www.ikea.com/jp/en/store/kobe",
   "smaland": 1
 },
 {
   "storeName": "Koblenz",
   "storeNumber": 332,
   "storeImage": "ikea_carson",
   "address": "An Der Römervilla  1",
   "zipCode": "56070",
   "city": "Koblenz",
   "country": "Germany",
   "telephone": "49261988490",
   "size": 27469,
   "roomSettings": 41,
   "realLifeHomes": 3,
   "cashLanes": 29,
   "restaurantSeating": 390,
   "latitude": 50.3828428,
   "longitude": 7.5603197,
   "webpage": "http://www.ikea.com/de/de/store/koblenz",
   "smaland": 1
 },
 {
   "storeName": "Krakow",
   "storeNumber": 204,
   "storeImage": "ikea_elizabeth",
   "address": "Ul. Conrada  66",
   "zipCode": "31357",
   "city": "Krakow",
   "country": "Poland",
   "telephone": "48122931100",
   "size": 27549,
   "roomSettings": 62,
   "realLifeHomes": 3,
   "cashLanes": 20,
   "restaurantSeating": 500,
   "latitude": 50.0894166,
   "longitude": 19.8976502,
   "webpage": "http://www.ikea.com/pl/pl/store/krakow",
   "smaland": 1
 },
 {
   "storeName": "Kristiansand (Sørlandet)",
   "storeNumber": 7,
   "storeImage": "ikea_emeryville",
   "address": "Sydinga 20",
   "zipCode": "4770",
   "city": "Høvåg",
   "country": "Norway",
   "telephone": "4741621860",
   "size": 38749,
   "roomSettings": 50,
   "realLifeHomes": 3,
   "cashLanes": 30,
   "restaurantSeating": 523,
   "latitude": 58.1698806,
   "longitude": 8.2480845,
   "webpage": "http://www.ikea.com/no/no/store/sorlandet",
   "smaland": 0
 },
 {
   "storeName": "Kuala Lumpur (Cheras)",
   "storeNumber": 362,
   "storeImage": "ikea_hamburg",
   "address": "2, Jalan PJU 7/2, Mutiara Damansara",
   "zipCode": "47810",
   "city": "Petaling Jaya, Selangor Darul Ehsan",
   "country": "Malaysia",
   "telephone": "",
   "size": 0,
   "roomSettings": 0,
   "realLifeHomes": 0,
   "cashLanes": 0,
   "restaurantSeating": 0,
   "latitude": 3.134345,
   "longitude": 101.719904,
   "webpage": "",
   "smaland": 0
 },
 {
   "storeName": "Kuala Lumpur (Damansara)",
   "storeNumber": 438,
   "storeImage": "ikea_madrid",
   "address": "Jalan Pju  2 7/2 (Mutiara Damansara)",
   "zipCode": "47800",
   "city": "Petaling Jaya",
   "country": "Malaysia",
   "telephone": "60377269999",
   "size": 40848,
   "roomSettings": 50,
   "realLifeHomes": 3,
   "cashLanes": 26,
   "restaurantSeating": 567,
   "latitude": 3.1571286,
   "longitude": 101.61286,
   "webpage": "http://www.ikea.com/my/en/store/damansara",
   "smaland": 1
 },
 {
   "storeName": "Kuopio",
   "storeNumber": 208,
   "storeImage": "ikea_sandiego",
   "address": "Ratarinteenkatu 2",
   "zipCode": "70800",
   "city": "Kuopio",
   "country": "Finland",
   "telephone": "",
   "size": 36748,
   "roomSettings": 53,
   "realLifeHomes": 3,
   "cashLanes": 28,
   "restaurantSeating": 506,
   "latitude": 62.8933345,
   "longitude": 27.6793276,
   "webpage": "",
   "smaland": 0
 },
 {
   "storeName": "Kuwait City",
   "storeNumber": 219,
   "storeImage": "ikea_tampines",
   "address": "The Avenues Mall  Al Rai  Block 1",
   "zipCode": "13037",
   "city": "Kuwait",
   "country": "Kuwait",
   "telephone": "965840408",
   "size": 21500,
   "roomSettings": 46,
   "realLifeHomes": 3,
   "cashLanes": 17,
   "restaurantSeating": 460,
   "latitude": 29.325633,
   "longitude": 47.951523,
   "webpage": "http://www.ikea.com.kw/index.php/?lang=en-GB",
   "smaland": 1
 },
 {
   "storeName": "Lanzarote (Arrecife)",
   "storeNumber": 44,
   "storeImage": "ikea_tempe",
   "address": "Carretera De Los Marmoles S/N Arrecife",
   "zipCode": "35500",
   "city": "Lanzarote",
   "country": "Spain",
   "telephone": "34828082000",
   "size": 8335,
   "roomSettings": 24,
   "realLifeHomes": 1,
   "cashLanes": 6,
   "restaurantSeating": 150,
   "latitude": 28.974449,
   "longitude": -13.535371,
   "webpage": "http://www.lanzarote.ikea.es/",
   "smaland": 0
 },
 {
   "storeName": "Larissa",
   "storeNumber": 454,
   "storeImage": "ikea_tottenham",
   "address": "8th km National Road Larissa-Athens",
   "zipCode": "41500",
   "city": "Nikaia- Larissa",
   "country": "Greece",
   "telephone": "(+)30 2410568400",
   "size": 26693,
   "roomSettings": 52,
   "realLifeHomes": 3,
   "cashLanes": 14,
   "restaurantSeating": 480,
   "latitude": 39.586738,
   "longitude": 22.464333,
   "webpage": "http://www.ikea.gr/default.aspx?page=home",
   "smaland": 1
 },
 {
   "storeName": "Las Vegas (Nevada)",
   "storeNumber": 462,
   "storeImage": "ikea_webley",
   "address": "6500 IKEA Way",
   "zipCode": "89148",
   "city": "Las Vegas",
   "country": "USA",
   "telephone": "",
   "size": 32618,
   "roomSettings": 0,
   "realLifeHomes": 0,
   "cashLanes": 0,
   "restaurantSeating": 0,
   "latitude": 36.0692,
   "longitude": -115.2833,
   "webpage": "",
   "smaland": 1
 },
 {
   "storeName": "Lausanne (Aubonne)",
   "storeNumber": 78,
   "storeImage": "ikea_westchester",
   "address": "Pré Neuf  CP 131",
   "zipCode": "1170",
   "city": "Aubonne",
   "country": "Switzerland",
   "telephone": "",
   "size": 27493,
   "roomSettings": 40,
   "realLifeHomes": 3,
   "cashLanes": 28,
   "restaurantSeating": 684,
   "latitude": 46.4765906,
   "longitude": 6.3973702,
   "webpage": "http://www.ikea.com/ch/fr/store/aubonne",
   "smaland": 0
 },
 {
   "storeName": "Leeds",
   "storeNumber": 261,
   "storeImage": "ikea_brooklyn",
   "address": "Holden Ing Way",
   "zipCode": "WF 17 9AE",
   "city": "Birstall",
   "country": "United Kingdom",
   "telephone": "441924427600",
   "size": 21095,
   "roomSettings": 44,
   "realLifeHomes": 3,
   "cashLanes": 31,
   "restaurantSeating": 431,
   "latitude": 53.745452,
   "longitude": -1.649332,
   "webpage": "http://www.ikea.com/gb/en/store/leeds",
   "smaland": 0
 },
 {
   "storeName": "Leipzig",
   "storeNumber": 139,
   "storeImage": "ikea_burbank",
   "address": "Nordpark  17 (Saalepark)",
   "zipCode": "6254",
   "city": "Günthersdorf",
   "country": "Germany",
   "telephone": "4934638570",
   "size": 32361,
   "roomSettings": 47,
   "realLifeHomes": 3,
   "cashLanes": 41,
   "restaurantSeating": 470,
   "latitude": 51.348532,
   "longitude": 12.182937,
   "webpage": "http://www.ikea.com/de/de/store/halle_leipzig",
   "smaland": 1
 },
 {
   "storeName": "Lens (Henin Beaumont)",
   "storeNumber": 51,
   "storeImage": "ikea_cairo",
   "address": "Bd Olof Palme",
   "zipCode": "62110",
   "city": "Henin-Beaumont",
   "country": "France",
   "telephone": "330321131400",
   "size": 21712,
   "roomSettings": 32,
   "realLifeHomes": 4,
   "cashLanes": 45,
   "restaurantSeating": 500,
   "latitude": 50.392427,
   "longitude": 2.976386,
   "webpage": "http://www.ikea.com/fr/fr/store/henin_beaumont",
   "smaland": 0
 },
 {
   "storeName": "Liège (Hognoul)",
   "storeNumber": 375,
   "storeImage": "ikea_canton",
   "address": "Porte De Liege  7",
   "zipCode": "4342",
   "city": "Hognoul",
   "country": "Belgium",
   "telephone": "32486644190",
   "size": 31732,
   "roomSettings": 53,
   "realLifeHomes": 3,
   "cashLanes": 41,
   "restaurantSeating": 603,
   "latitude": 50.678892,
   "longitude": 5.462658,
   "webpage": "http://www.ikea.com/be/nl/store/hognoul",
   "smaland": 1
 },
 {
   "storeName": "Lille (Lomme)",
   "storeNumber": 133,
   "storeImage": "ikea_carson",
   "address": "Rue Grand But",
   "zipCode": "59160",
   "city": "Lomme",
   "country": "France",
   "telephone": "330320175200",
   "size": 23887,
   "roomSettings": 51,
   "realLifeHomes": 3,
   "cashLanes": 34,
   "restaurantSeating": 450,
   "latitude": 50.649435,
   "longitude": 2.977813,
   "webpage": "http://www.ikea.com/fr/fr/store/lille",
   "smaland": 0
 },
 {
   "storeName": "Linköping",
   "storeNumber": 17,
   "storeImage": "ikea_elizabeth",
   "address": "Svedengatan",
   "zipCode": "58111",
   "city": "Linköping",
   "country": "Sweden",
   "telephone": "4613289300",
   "size": 18220,
   "roomSettings": 0,
   "realLifeHomes": 0,
   "cashLanes": 28,
   "restaurantSeating": 274,
   "latitude": 58.43311,
   "longitude": 15.587116,
   "webpage": "http://www.ikea.com/se/sv/store/linkoping",
   "smaland": 1
 },
 {
   "storeName": "Linz (Haid)",
   "storeNumber": 388,
   "storeImage": "ikea_emeryville",
   "address": "Ikeaplatz  1",
   "zipCode": "4053",
   "city": "Linz",
   "country": "Austria",
   "telephone": "4372298414501",
   "size": 28077,
   "roomSettings": 39,
   "realLifeHomes": 3,
   "cashLanes": 26,
   "restaurantSeating": 393,
   "latitude": 48.197078,
   "longitude": 14.250611,
   "webpage": "http://www.ikea.com/at/de/store/haid",
   "smaland": 1
 },
 {
   "storeName": "Lisbon (Alfragide)",
   "storeNumber": 367,
   "storeImage": "ikea_hamburg",
   "address": "Est. Nac.  117 (Zona Ind. Alfragide)",
   "zipCode": "2614-520",
   "city": "Lisboa",
   "country": "Portugal",
   "telephone": "351214705000",
   "size": 36889,
   "roomSettings": 53,
   "realLifeHomes": 3,
   "cashLanes": 38,
   "restaurantSeating": 452,
   "latitude": 38.729199,
   "longitude": -9.216122,
   "webpage": "http://www.ikea.com/pt/pt/store/alfragide",
   "smaland": 1
 },
 {
   "storeName": "Lisbon (Loures)",
   "storeNumber": 1,
   "storeImage": "ikea_madrid",
   "address": "RUA 28 DE SETEMBRO EN250",
   "zipCode": "2660-001",
   "city": "FRIELAS LOURES",
   "country": "Portugal",
   "telephone": "351219899600",
   "size": 39541,
   "roomSettings": 57,
   "realLifeHomes": 3,
   "cashLanes": 38,
   "restaurantSeating": 550,
   "latitude": 38.817733,
   "longitude": -9.149794,
   "webpage": "http://www.ikea.com/pt/pt/store/loures",
   "smaland": 1
 },
 {
   "storeName": "Lodz",
   "storeNumber": 329,
   "storeImage": "ikea_sandiego",
   "address": "ul. Pabianicka 255",
   "zipCode": "93-457",
   "city": "Lodz",
   "country": "Poland",
   "telephone": "48422913000",
   "size": 29765,
   "roomSettings": 58,
   "realLifeHomes": 3,
   "cashLanes": 23,
   "restaurantSeating": 620,
   "latitude": 51.702165,
   "longitude": 19.414821,
   "webpage": "http://www.ikea.com/pl/pl/store/lodz",
   "smaland": 0
 },
 {
   "storeName": "London (Croydon)",
   "storeNumber": 144,
   "storeImage": "ikea_tampines",
   "address": "Purley Way",
   "zipCode": "CRO 2JB",
   "city": "Croydon",
   "country": "United Kingdom",
   "telephone": "442087815000",
   "size": 34526,
   "roomSettings": 51,
   "realLifeHomes": 3,
   "cashLanes": 26,
   "restaurantSeating": 498,
   "latitude": 51.379883,
   "longitude": -0.123876,
   "webpage": "http://www.ikea.com/gb/en/store/croydon",
   "smaland": 0
 },
 {
   "storeName": "London (Lakeside)",
   "storeNumber": 262,
   "storeImage": "ikea_tempe",
   "address": "Heron Way",
   "zipCode": "RM20 3WJ",
   "city": "West Thurrock",
   "country": "United Kingdom",
   "telephone": "441375302100",
   "size": 35184,
   "roomSettings": 43,
   "realLifeHomes": 3,
   "cashLanes": 34,
   "restaurantSeating": 450,
   "latitude": 51.479582,
   "longitude": 0.284811,
   "webpage": "http://www.ikea.com/gb/en/store/thurrock",
   "smaland": 1
 },
 {
   "storeName": "London (Tottenham)",
   "storeNumber": 255,
   "storeImage": "ikea_tottenham",
   "address": "Glover Drive",
   "zipCode": "N18 3HF",
   "city": "Edmonton",
   "country": "United Kingdom",
   "telephone": "",
   "size": 28460,
   "roomSettings": 50,
   "realLifeHomes": 3,
   "cashLanes": 34,
   "restaurantSeating": 430,
   "latitude": 51.608085,
   "longitude": -0.046814,
   "webpage": "http://www.ikea.com/gb/en/store/edmonton",
   "smaland": 0
 },
 {
   "storeName": "London (Wembley)",
   "storeNumber": 141,
   "storeImage": "ikea_webley",
   "address": "Drury Way  2",
   "zipCode": "NW 10 0TH",
   "city": "London",
   "country": "United Kingdom",
   "telephone": "442082332200",
   "size": 32861,
   "roomSettings": 54,
   "realLifeHomes": 3,
   "cashLanes": 37,
   "restaurantSeating": 540,
   "latitude": 51.553892,
   "longitude": -0.259817,
   "webpage": "http://www.ikea.com/gb/en/store/brent_park",
   "smaland": 1
 },
 {
   "storeName": "Los Angeles (Burbank)",
   "storeNumber": 399,
   "storeImage": "ikea_westchester",
   "address": "San Fernando Blvd  600N",
   "zipCode": "91502",
   "city": "Burbank",
   "country": "USA",
   "telephone": "18188424532",
   "size": 0,
   "roomSettings": 0,
   "realLifeHomes": 0,
   "cashLanes": 0,
   "restaurantSeating": 0,
   "latitude": 34.1776,
   "longitude": -118.3095,
   "webpage": "http://www.ikea.com/us/en/store/burbank",
   "smaland": 0
 },
 {
   "storeName": "Los Angeles (Carson)",
   "storeNumber": 162,
   "storeImage": "ikea_brooklyn",
   "address": "South Avalon Blvd  20700",
   "zipCode": "90746",
   "city": "Carson",
   "country": "USA",
   "telephone": "13105274532",
   "size": 18716,
   "roomSettings": 26,
   "realLifeHomes": 0,
   "cashLanes": 16,
   "restaurantSeating": 0,
   "latitude": 33.842088,
   "longitude": -118.259559,
   "webpage": "http://www.ikea.com/us/en/store/carson",
   "smaland": 1
 },
 {
   "storeName": "Los Angeles (Costa Mesa)",
   "storeNumber": 167,
   "storeImage": "ikea_burbank",
   "address": "South Coast Drive  1475",
   "zipCode": "92626",
   "city": "Costa Mesa",
   "country": "USA",
   "telephone": "",
   "size": 30367,
   "roomSettings": 41,
   "realLifeHomes": 3,
   "cashLanes": 26,
   "restaurantSeating": 258,
   "latitude": 33.6909399,
   "longitude": -117.9165221,
   "webpage": "http://www.ikea.com/us/en/store/costa_mesa",
   "smaland": 1
 },
 {
   "storeName": "Los Angeles (Covina)",
   "storeNumber": 413,
   "storeImage": "ikea_cairo",
   "address": "South Barranca Avenue  848",
   "zipCode": "91723",
   "city": "Covina",
   "country": "USA",
   "telephone": "",
   "size": 29133,
   "roomSettings": 41,
   "realLifeHomes": 3,
   "cashLanes": 16,
   "restaurantSeating": 220,
   "latitude": 34.0740945,
   "longitude": -117.8790984,
   "webpage": "http://www.ikea.com/us/en/store/covina",
   "smaland": 0
 },
 {
   "storeName": "Loulé",
   "storeNumber": 453,
   "storeImage": "ikea_canton",
   "address": "Avenida do Algarve n.º 5",
   "zipCode": "8135-182",
   "city": "Almancil",
   "country": "Portugal",
   "telephone": "",
   "size": 0,
   "roomSettings": 0,
   "realLifeHomes": 0,
   "cashLanes": 0,
   "restaurantSeating": 450,
   "latitude": 37.0964523,
   "longitude": -7.9955642,
   "webpage": "",
   "smaland": 0
 },
 {
   "storeName": "Lübeck",
   "storeNumber": 289,
   "storeImage": "ikea_carson",
   "address": "Daenischburger Landstrasse 79-81",
   "zipCode": "23569",
   "city": "Luebeck",
   "country": "Germany",
   "telephone": "",
   "size": 0,
   "roomSettings": 0,
   "realLifeHomes": 0,
   "cashLanes": 0,
   "restaurantSeating": 356,
   "latitude": 53.9119729,
   "longitude": 10.7344794,
   "webpage": "",
   "smaland": 1
 },
 {
   "storeName": "Lucerne (Rothenburg)",
   "storeNumber": 275,
   "storeImage": "ikea_elizabeth",
   "address": "Wahligenstrasse 6",
   "zipCode": "6023",
   "city": "Luzern",
   "country": "Switzerland",
   "telephone": "",
   "size": 31544,
   "roomSettings": 57,
   "realLifeHomes": 3,
   "cashLanes": 32,
   "restaurantSeating": 481,
   "latitude": 47.0926204,
   "longitude": 8.245145,
   "webpage": "",
   "smaland": 0
 },
 {
   "storeName": "Lugano (Grancia)",
   "storeNumber": 101,
   "storeImage": "ikea_emeryville",
   "address": "Centro Lugano Sud",
   "zipCode": "6916",
   "city": "Grancia",
   "country": "Switzerland",
   "telephone": "41848801100",
   "size": 20933,
   "roomSettings": 30,
   "realLifeHomes": 2,
   "cashLanes": 11,
   "restaurantSeating": 389,
   "latitude": 45.973547,
   "longitude": 8.926755,
   "webpage": "http://www.ikea.com/ch/it/store/grancia",
   "smaland": 1
 },
 {
   "storeName": "Lyon (Saint Priest)",
   "storeNumber": 132,
   "storeImage": "ikea_hamburg",
   "address": "Zac Du Champ Du Pont",
   "zipCode": "69808",
   "city": "Lyon",
   "country": "France",
   "telephone": "330472152808",
   "size": 18960,
   "roomSettings": 0,
   "realLifeHomes": 0,
   "cashLanes": 0,
   "restaurantSeating": 304,
   "latitude": 45.721493,
   "longitude": 4.930302,
   "webpage": "http://www.ikea.com/fr/fr/store/lyon",
   "smaland": 0
 },
 {
   "storeName": "Madrid (Alcorcon) Relocated",
   "storeNumber": 31,
   "storeImage": "ikea_madrid",
   "address": "Avenida Europa 22",
   "zipCode": "",
   "city": "Alcorcon, Madrid",
   "country": "Spain",
   "telephone": "",
   "size": 0,
   "roomSettings": 0,
   "realLifeHomes": 0,
   "cashLanes": 0,
   "restaurantSeating": 0,
   "latitude": 40.3443,
   "longitude": -3.8517,
   "webpage": "http://www.ikea.com/es/es/store/alcorcon/indexPage",
   "smaland": 1
 },
 {
   "storeName": "Madrid (San Sebastian de los Reyes)",
   "storeNumber": 282,
   "storeImage": "ikea_sandiego",
   "address": "Plaza Del Comercio (Mega Park)",
   "zipCode": "28700",
   "city": "Madrid",
   "country": "Spain",
   "telephone": "34916598551",
   "size": 35891,
   "roomSettings": 45,
   "realLifeHomes": 3,
   "cashLanes": 42,
   "restaurantSeating": 700,
   "latitude": 40.5457513,
   "longitude": -3.6119849,
   "webpage": "http://www.ikea.com/es/es/store/ssdlr",
   "smaland": 1
 },
 {
   "storeName": "Madrid (Vallecas)",
   "storeNumber": 498,
   "storeImage": "ikea_tampines",
   "address": "Pau Ensanche Vallecas  A3 Km. 10",
   "zipCode": "28031",
   "city": "Madrid",
   "country": "Spain",
   "telephone": "34917795932",
   "size": 28178,
   "roomSettings": 43,
   "realLifeHomes": 3,
   "cashLanes": 36,
   "restaurantSeating": 531,
   "latitude": 40.3694531,
   "longitude": -3.5958518,
   "webpage": "http://www.ikea.com/es/es/store/madrid_este",
   "smaland": 1
 },
 {
   "storeName": "Malaga",
   "storeNumber": 304,
   "storeImage": "ikea_tempe",
   "address": "Avd Velazquez  389 (Bahia Malaga)",
   "zipCode": "29004",
   "city": "Malaga",
   "country": "Spain",
   "telephone": "34952418422",
   "size": 27838,
   "roomSettings": 52,
   "realLifeHomes": 3,
   "cashLanes": 34,
   "restaurantSeating": 540,
   "latitude": 36.6576991,
   "longitude": -4.4824706,
   "webpage": "http://www.ikea.com/es/es/store/malaga",
   "smaland": 1
 },
 {
   "storeName": "Mallorca (Palma)",
   "storeNumber": 47,
   "storeImage": "ikea_tottenham",
   "address": "Cami Fondo S/N (Via Cintura)",
   "zipCode": "7007",
   "city": "Palma De Mallorca",
   "country": "Spain",
   "telephone": "34971420888",
   "size": 16500,
   "roomSettings": 29,
   "realLifeHomes": 2,
   "cashLanes": 10,
   "restaurantSeating": 146,
   "latitude": 39.5668001,
   "longitude": 2.6788156,
   "webpage": "http://www.mallorca.ikea.es/",
   "smaland": 0
 },
 {
   "storeName": "Malmö",
   "storeNumber": 445,
   "storeImage": "ikea_webley",
   "address": "Kulthusgatan 1",
   "zipCode": "21586",
   "city": "Malmö",
   "country": "Sweden",
   "telephone": "",
   "size": 43136,
   "roomSettings": 50,
   "realLifeHomes": 3,
   "cashLanes": 49,
   "restaurantSeating": 730,
   "latitude": 55.552504,
   "longitude": 12.990263,
   "webpage": "http://www.ikea.com/se/sv/store/malmo",
   "smaland": 0
 },
 {
   "storeName": "Manchester (Ashton)",
   "storeNumber": 186,
   "storeImage": "ikea_westchester",
   "address": "Wellington Road  110",
   "zipCode": "OL6 7HX",
   "city": "Manchester",
   "country": "United Kingdom",
   "telephone": "",
   "size": 27285,
   "roomSettings": 49,
   "realLifeHomes": 3,
   "cashLanes": 22,
   "restaurantSeating": 310,
   "latitude": 53.4909861,
   "longitude": -2.1007656,
   "webpage": "http://www.ikea.com/gb/en/store/ashton",
   "smaland": 1
 },
 {
   "storeName": "Manchester (Warrington)",
   "storeNumber": 140,
   "storeImage": "ikea_brooklyn",
   "address": "Europa Boulevard  910",
   "zipCode": "WA5 5TY",
   "city": "Cheshire",
   "country": "United Kingdom",
   "telephone": "441925445670",
   "size": 25430,
   "roomSettings": 42,
   "realLifeHomes": 3,
   "cashLanes": 30,
   "restaurantSeating": 600,
   "latitude": 53.417486,
   "longitude": -2.627951,
   "webpage": "http://www.ikea.com/gb/en/store/warrington",
   "smaland": 0
 },
 {
   "storeName": "Mannheim",
   "storeNumber": 397,
   "storeImage": "ikea_burbank",
   "address": "Frankenthalerstrasse  123",
   "zipCode": "68307",
   "city": "Mannheim",
   "country": "Germany",
   "telephone": "4962140067112",
   "size": 31704,
   "roomSettings": 52,
   "realLifeHomes": 3,
   "cashLanes": 33,
   "restaurantSeating": 570,
   "latitude": 49.555759,
   "longitude": 8.443961,
   "webpage": "http://www.ikea.com/de/de/store/mannheim",
   "smaland": 1
 },
 {
   "storeName": "Marseille (La Valentine)",
   "storeNumber": 433,
   "storeImage": "ikea_cairo",
   "address": "Zac La Valentine - La Ravelle",
   "zipCode": "13011",
   "city": "Marseille",
   "country": "France",
   "telephone": "330491884500",
   "size": 22711,
   "roomSettings": 49,
   "realLifeHomes": 3,
   "cashLanes": 26,
   "restaurantSeating": 400,
   "latitude": 43.293086,
   "longitude": 5.481084,
   "webpage": "http://www.ikea.com/fr/fr/store/valentine",
   "smaland": 0
 },
 {
   "storeName": "Marseille (Vitrolles)",
   "storeNumber": 130,
   "storeImage": "ikea_canton",
   "address": "La Bastide Blanche",
   "zipCode": "13127",
   "city": "Marseille",
   "country": "France",
   "telephone": "330442101690",
   "size": 22082,
   "roomSettings": 35,
   "realLifeHomes": 3,
   "cashLanes": 30,
   "restaurantSeating": 293,
   "latitude": 43.429327,
   "longitude": 5.267893,
   "webpage": "http://www.ikea.com/fr/fr/store/marseille",
   "smaland": 1
 },
 {
   "storeName": "Melbourne (Richmond)",
   "storeNumber": 384,
   "storeImage": "ikea_carson",
   "address": "Victoria Street 630",
   "zipCode": "3121",
   "city": "Richmond, Melbourne",
   "country": "Australia",
   "telephone": "",
   "size": 25146,
   "roomSettings": 50,
   "realLifeHomes": 3,
   "cashLanes": 28,
   "restaurantSeating": 333,
   "latitude": -37.8123874,
   "longitude": 145.0110762,
   "webpage": "",
   "smaland": 1
 },
 {
   "storeName": "Melbourne (Springvale)",
   "storeNumber": 6,
   "storeImage": "ikea_elizabeth",
   "address": "Princes Highway 917",
   "zipCode": "3171",
   "city": "Springvale, Melbourne",
   "country": "Australia",
   "telephone": "",
   "size": 35955,
   "roomSettings": 60,
   "realLifeHomes": 3,
   "cashLanes": 37,
   "restaurantSeating": 700,
   "latitude": -37.927454,
   "longitude": 145.143848,
   "webpage": "",
   "smaland": 0
 },
 {
   "storeName": "Memphis",
   "storeNumber": 508,
   "storeImage": "ikea_emeryville",
   "address": "7900 IKEA Way",
   "zipCode": "38016",
   "city": "Memphis",
   "country": "USA",
   "telephone": "",
   "size": 25190,
   "roomSettings": 0,
   "realLifeHomes": 0,
   "cashLanes": 0,
   "restaurantSeating": 205,
   "latitude": 35.1899914,
   "longitude": -89.7993025,
   "webpage": "http://www.ikea.com/ms/en_US/grand-opening/memphis/index.html",
   "smaland": 0
 },
 {
   "storeName": "Metz (La Maxe)",
   "storeNumber": 260,
   "storeImage": "ikea_hamburg",
   "address": "Rue Du Trou Aux Serpents",
   "zipCode": "57140",
   "city": "La Maxe",
   "country": "France",
   "telephone": "330387161900",
   "size": 23037,
   "roomSettings": 44,
   "realLifeHomes": 3,
   "cashLanes": 26,
   "restaurantSeating": 355,
   "latitude": 49.150069,
   "longitude": 6.188014,
   "webpage": "http://www.ikea.com/fr/fr/store/metz",
   "smaland": 1
 },
 {
   "storeName": "Miami",
   "storeNumber": 327,
   "storeImage": "ikea_madrid",
   "address": "1801 NW 117th Ave",
   "zipCode": "33172",
   "city": "Miami (Sweetwater)",
   "country": "USA",
   "telephone": "",
   "size": 38648,
   "roomSettings": 0,
   "realLifeHomes": 0,
   "cashLanes": 0,
   "restaurantSeating": 600,
   "latitude": 25.7522171,
   "longitude": -80.3841733,
   "webpage": "",
   "smaland": 0
 },
 {
   "storeName": "Milan (Carugate)",
   "storeNumber": 233,
   "storeImage": "ikea_sandiego",
   "address": "Via Dell'artigianato  7",
   "zipCode": "20061",
   "city": "Carugate",
   "country": "Italy",
   "telephone": "390292154810",
   "size": 36812,
   "roomSettings": 55,
   "realLifeHomes": 3,
   "cashLanes": 47,
   "restaurantSeating": 500,
   "latitude": 45.5503792,
   "longitude": 9.3315056,
   "webpage": "http://www.ikea.com/it/it/store/milano_carugate",
   "smaland": 1
 },
 {
   "storeName": "Milan (Corsico)",
   "storeNumber": 455,
   "storeImage": "ikea_tampines",
   "address": "Via Marchesi  4",
   "zipCode": "20094",
   "city": "Corsico",
   "country": "Italy",
   "telephone": "390248690326",
   "size": 36044,
   "roomSettings": 52,
   "realLifeHomes": 3,
   "cashLanes": 46,
   "restaurantSeating": 590,
   "latitude": 45.4268061,
   "longitude": 9.0797878,
   "webpage": "http://www.ikea.com/it/it/store/milano_corsico",
   "smaland": 0
 },
 {
   "storeName": "Milan (San Giuliano)",
   "storeNumber": 295,
   "storeImage": "ikea_tempe",
   "address": "VIA PO 3",
   "zipCode": "20098",
   "city": "S.Giuliano Milanese (MI)",
   "country": "Italy",
   "telephone": "  +39 335 6848942",
   "size": 32325,
   "roomSettings": 60,
   "realLifeHomes": 3,
   "cashLanes": 42,
   "restaurantSeating": 505,
   "latitude": 45.3892901,
   "longitude": 9.2610636,
   "webpage": "http://www.ikea.com/it/it/store/milano_sangiuliano",
   "smaland": 1
 },
 {
   "storeName": "Milton Keynes",
   "storeNumber": 185,
   "storeImage": "ikea_tottenham",
   "address": "Off Bletcham Way (Goslington)",
   "zipCode": "MK1 1RN",
   "city": "Milton Keynes",
   "country": "United Kingdom",
   "telephone": "",
   "size": 24171,
   "roomSettings": 34,
   "realLifeHomes": 0,
   "cashLanes": 30,
   "restaurantSeating": 450,
   "latitude": 52.0353334,
   "longitude": -0.7041592,
   "webpage": "http://www.ikea.com/gb/en/store/milton_keynes",
   "smaland": 1
 },
 {
   "storeName": "Minneapolis (Bloomington)",
   "storeNumber": 212,
   "storeImage": "ikea_webley",
   "address": "IKEA Way  8000",
   "zipCode": "55425",
   "city": "Bloomington",
   "country": "USA",
   "telephone": "",
   "size": 29609,
   "roomSettings": 41,
   "realLifeHomes": 3,
   "cashLanes": 36,
   "restaurantSeating": 510,
   "latitude": 44.85882,
   "longitude": -93.2449164,
   "webpage": "http://www.ikea.com/us/en/store/twin_cities",
   "smaland": 1
 },
 {
   "storeName": "Mons",
   "storeNumber": 423,
   "storeImage": "ikea_westchester",
   "address": "Place des Grands Prés 1/A",
   "zipCode": "7000",
   "city": "Mons",
   "country": "Belgium",
   "telephone": "",
   "size": 0,
   "roomSettings": 0,
   "realLifeHomes": 0,
   "cashLanes": 0,
   "restaurantSeating": 585,
   "latitude": 50.4618,
   "longitude": 3.932,
   "webpage": "",
   "smaland": 1
 },
 {
   "storeName": "Montpellier",
   "storeNumber": 402,
   "storeImage": "ikea_brooklyn",
   "address": "Zac Port Marianne (Zone Odysseum)",
   "zipCode": "34000",
   "city": "Montpellier",
   "country": "France",
   "telephone": "330467821000",
   "size": 23791,
   "roomSettings": 0,
   "realLifeHomes": 0,
   "cashLanes": 0,
   "restaurantSeating": 392,
   "latitude": 43.604181,
   "longitude": 3.924192,
   "webpage": "http://www.ikea.com/fr/fr/store/montpellier#",
   "smaland": 0
 },
 {
   "storeName": "Montreal (Boucherville)",
   "storeNumber": 414,
   "storeImage": "ikea_burbank",
   "address": "De Touraine  586",
   "zipCode": "J4B 5E4",
   "city": "Boucherville",
   "country": "Canada",
   "telephone": "14504498096",
   "size": 32474,
   "roomSettings": 54,
   "realLifeHomes": 2,
   "cashLanes": 34,
   "restaurantSeating": 350,
   "latitude": 45.572202,
   "longitude": -73.400848,
   "webpage": "http://www.ikea.com/ca/en/store/boucherville",
   "smaland": 0
 },
 {
   "storeName": "Montreal (Saint Laurent)",
   "storeNumber": 39,
   "storeImage": "ikea_cairo",
   "address": "Boulevard Cavendish  9191",
   "zipCode": "H4T 1M8",
   "city": "Ville St. Laurent",
   "country": "Canada",
   "telephone": "15147382167",
   "size": 42783,
   "roomSettings": 57,
   "realLifeHomes": 2,
   "cashLanes": 48,
   "restaurantSeating": 650,
   "latitude": 45.491897,
   "longitude": -73.691614,
   "webpage": "http://www.ikea.com/ca/en/store/montreal",
   "smaland": 1
 },
 {
   "storeName": "Moscow (Belaya Dacha)",
   "storeNumber": 344,
   "storeImage": "ikea_canton",
   "address": "Microregion Belaya Dacha (Kotelniki)",
   "zipCode": "140053",
   "city": "Moscow",
   "country": "Russia",
   "telephone": "",
   "size": 30542,
   "roomSettings": 55,
   "realLifeHomes": 2,
   "cashLanes": 44,
   "restaurantSeating": 800,
   "latitude": 55.656504,
   "longitude": 37.851544,
   "webpage": "http://www.ikea.com/ru/ru/",
   "smaland": 0
 },
 {
   "storeName": "Moscow (Khimki)",
   "storeNumber": 335,
   "storeImage": "ikea_carson",
   "address": "Microregion  8",
   "zipCode": "141400",
   "city": "Khimki",
   "country": "Russia",
   "telephone": "",
   "size": 32179,
   "roomSettings": 56,
   "realLifeHomes": 3,
   "cashLanes": 40,
   "restaurantSeating": 576,
   "latitude": 55.885969,
   "longitude": 37.433825,
   "webpage": "http://www.ikea.com/ru/ru/",
   "smaland": 1
 },
 {
   "storeName": "Moscow (Teply Stan)",
   "storeNumber": 336,
   "storeImage": "ikea_elizabeth",
   "address": "Mamyri Village (IKEA)",
   "zipCode": "142770",
   "city": "Moscow",
   "country": "Russia",
   "telephone": "",
   "size": 32862,
   "roomSettings": 65,
   "realLifeHomes": 4,
   "cashLanes": 44,
   "restaurantSeating": 660,
   "latitude": 55.603407,
   "longitude": 37.495437,
   "webpage": "http://www.ikea.com/ru/ru/",
   "smaland": 0
 },
 {
   "storeName": "Mulhouse",
   "storeNumber": 444,
   "storeImage": "ikea_emeryville",
   "address": "C/O ZAC PARCS DES COLLINES",
   "zipCode": "68200",
   "city": "Mulhouse",
   "country": "France",
   "telephone": "",
   "size": 25800,
   "roomSettings": 0,
   "realLifeHomes": 0,
   "cashLanes": 0,
   "restaurantSeating": 350,
   "latitude": 47.730903,
   "longitude": 7.284194,
   "webpage": "",
   "smaland": 1
 },
 {
   "storeName": "Munich (Brunnthal)",
   "storeNumber": 343,
   "storeImage": "ikea_hamburg",
   "address": "Brunnthalerstrasse  1",
   "zipCode": "82024",
   "city": "Taufkirchen",
   "country": "Germany",
   "telephone": "4989637990",
   "size": 38178,
   "roomSettings": 49,
   "realLifeHomes": 3,
   "cashLanes": 45,
   "restaurantSeating": 536,
   "latitude": 48.040341,
   "longitude": 11.657759,
   "webpage": "http://www.ikea.com/de/de/store/muenchen_brunnthal",
   "smaland": 1
 },
 {
   "storeName": "Munich (Eching)",
   "storeNumber": 63,
   "storeImage": "ikea_madrid",
   "address": "Heisenbergstrasse  14",
   "zipCode": "85386",
   "city": "Eching",
   "country": "Germany",
   "telephone": "4981656190",
   "size": 30806,
   "roomSettings": 42,
   "realLifeHomes": 3,
   "cashLanes": 39,
   "restaurantSeating": 405,
   "latitude": 48.304143,
   "longitude": 11.633666,
   "webpage": "http://www.ikea.com/de/de/store/muenchen_eching",
   "smaland": 0
 },
 {
   "storeName": "Murcia",
   "storeNumber": 449,
   "storeImage": "ikea_sandiego",
   "address": "Avenida Don Juan De Borbon S/n",
   "zipCode": "30110",
   "city": "Murcia",
   "country": "Spain",
   "telephone": "",
   "size": 30632,
   "roomSettings": 56,
   "realLifeHomes": 3,
   "cashLanes": 38,
   "restaurantSeating": 540,
   "latitude": 38.0272696,
   "longitude": -1.1455652,
   "webpage": "",
   "smaland": 0
 },
 {
   "storeName": "Nanjing",
   "storeNumber": 481,
   "storeImage": "ikea_tampines",
   "address": "Mingshi Road  99 (Qinghuai area)",
   "zipCode": "210022",
   "city": "Nanjing",
   "country": "China",
   "telephone": "862552254532",
   "size": 31260,
   "roomSettings": 57,
   "realLifeHomes": 4,
   "cashLanes": 25,
   "restaurantSeating": 720,
   "latitude": 31.995584,
   "longitude": 118.79236,
   "webpage": "http://www.ikea.com/cn/en/store/nanjing",
   "smaland": 1
 },
 {
   "storeName": "Nantes (Saint Herblain)",
   "storeNumber": 316,
   "storeImage": "ikea_tempe",
   "address": "Pole Atlantis  BP 137",
   "zipCode": "44817",
   "city": "Nantes",
   "country": "France",
   "telephone": "330228034444",
   "size": 22621,
   "roomSettings": 41,
   "realLifeHomes": 2,
   "cashLanes": 32,
   "restaurantSeating": 335,
   "latitude": 47.222328,
   "longitude": -1.631717,
   "webpage": "http://www.ikea.com/fr/fr/store/nantes",
   "smaland": 0
 },
 {
   "storeName": "Naples (Afragola)",
   "storeNumber": 353,
   "storeImage": "ikea_tottenham",
   "address": "Via E. Berlinguer  2 (Loc.Cantariello)",
   "zipCode": "80021",
   "city": "Napoli",
   "country": "Italy",
   "telephone": "390818606681",
   "size": 36202,
   "roomSettings": 49,
   "realLifeHomes": 3,
   "cashLanes": 40,
   "restaurantSeating": 354,
   "latitude": 40.9088389,
   "longitude": 14.3161976,
   "webpage": "http://www.ikea.com/it/it/store/napoli_afragola",
   "smaland": 1
 },
 {
   "storeName": "New York (Brooklyn)",
   "storeNumber": 921,
   "storeImage": "ikea_webley",
   "address": "Beard Street  1",
   "zipCode": "11231",
   "city": "Brooklyn",
   "country": "USA",
   "telephone": "17182549210",
   "size": 33809,
   "roomSettings": 51,
   "realLifeHomes": 3,
   "cashLanes": 29,
   "restaurantSeating": 452,
   "latitude": 40.6728839,
   "longitude": -74.0115386,
   "webpage": "http://www.ikea.com/us/en/store/brooklyn",
   "smaland": 0
 },
 {
   "storeName": "New York (Elizabeth)",
   "storeNumber": 154,
   "storeImage": "ikea_westchester",
   "address": "Center Drive  1000",
   "zipCode": "7201",
   "city": "Elizabeth",
   "country": "USA",
   "telephone": "19082894488",
   "size": 36195,
   "roomSettings": 52,
   "realLifeHomes": 3,
   "cashLanes": 24,
   "restaurantSeating": 400,
   "latitude": 40.675767,
   "longitude": -74.169528,
   "webpage": "http://www.ikea.com/us/en/store/elizabeth",
   "smaland": 1
 },
 {
   "storeName": "New York (Hicksville)",
   "storeNumber": 156,
   "storeImage": "ikea_brooklyn",
   "address": "Broadway Mall  1100",
   "zipCode": "11801",
   "city": "Hicksville",
   "country": "USA",
   "telephone": "15166814532",
   "size": 25005,
   "roomSettings": 41,
   "realLifeHomes": 3,
   "cashLanes": 18,
   "restaurantSeating": 290,
   "latitude": 40.774531,
   "longitude": -73.531365,
   "webpage": "http://www.ikea.com/us/en/store/long_island",
   "smaland": 1
 },
 {
   "storeName": "New York (New Haven)",
   "storeNumber": 213,
   "storeImage": "ikea_burbank",
   "address": "Sargent Drive  450",
   "zipCode": "6511",
   "city": "New Haven",
   "country": "USA",
   "telephone": "",
   "size": 28934,
   "roomSettings": 37,
   "realLifeHomes": 3,
   "cashLanes": 27,
   "restaurantSeating": 406,
   "latitude": 41.2955893,
   "longitude": -72.9198582,
   "webpage": "http://www.ikea.com/us/en/store/new_haven",
   "smaland": 1
 },
 {
   "storeName": "New York (Paramus)",
   "storeNumber": 409,
   "storeImage": "ikea_cairo",
   "address": "4th Route & 17th Route",
   "zipCode": "7652",
   "city": "Paramus",
   "country": "USA",
   "telephone": "",
   "size": 33341,
   "roomSettings": 51,
   "realLifeHomes": 3,
   "cashLanes": 25,
   "restaurantSeating": 400,
   "latitude": 40.9234181,
   "longitude": -74.0736684,
   "webpage": "http://www.ikea.com/us/en/store/paramus",
   "smaland": 1
 },
 {
   "storeName": "Newcastle (Gateshead)",
   "storeNumber": 143,
   "storeImage": "ikea_canton",
   "address": "Metro Park West",
   "zipCode": "NE11 9XS",
   "city": "Gateshead",
   "country": "United Kingdom",
   "telephone": "441914932021",
   "size": 26926,
   "roomSettings": 41,
   "realLifeHomes": 3,
   "cashLanes": 24,
   "restaurantSeating": 400,
   "latitude": 54.95767,
   "longitude": -1.680796,
   "webpage": "http://www.ikea.com/gb/en/store/gateshead",
   "smaland": 0
 },
 {
   "storeName": "Nicosia",
   "storeNumber": 196,
   "storeImage": "ikea_carson",
   "address": "Verginas Street  1",
   "zipCode": "2025",
   "city": "Nicosia",
   "country": "Cyprus",
   "telephone": "35722502500",
   "size": 20993,
   "roomSettings": 51,
   "realLifeHomes": 3,
   "cashLanes": 15,
   "restaurantSeating": 300,
   "latitude": 35.129638,
   "longitude": 33.373058,
   "webpage": "http://www.ikea.com.cy/default.aspx?page=home",
   "smaland": 0
 },
 {
   "storeName": "Ningbo",
   "storeNumber": 279,
   "storeImage": "ikea_elizabeth",
   "address": "No. 525, Yiyuan Rd",
   "zipCode": "315105",
   "city": "Ningbo",
   "country": "China",
   "telephone": "",
   "size": 50957,
   "roomSettings": 0,
   "realLifeHomes": 0,
   "cashLanes": 0,
   "restaurantSeating": 623,
   "latitude": 29.8398502,
   "longitude": 121.5193362,
   "webpage": "",
   "smaland": 1
 },
 {
   "storeName": "Nizhniy Novgorod",
   "storeNumber": 437,
   "storeImage": "ikea_emeryville",
   "address": "Village Fedyakovo",
   "zipCode": "607650",
   "city": "Kstovo",
   "country": "Russia",
   "telephone": "",
   "size": 27008,
   "roomSettings": 49,
   "realLifeHomes": 2,
   "cashLanes": 20,
   "restaurantSeating": 600,
   "latitude": 56.22396,
   "longitude": 44.072226,
   "webpage": "http://www.ikea.com/ru/ru/",
   "smaland": 0
 },
 {
   "storeName": "Nottingham",
   "storeNumber": 263,
   "storeImage": "ikea_hamburg",
   "address": "Ikea Way Giltbrook",
   "zipCode": "NG16 2RP",
   "city": "Nottingham",
   "country": "United Kingdom",
   "telephone": "441159387500",
   "size": 23310,
   "roomSettings": 46,
   "realLifeHomes": 3,
   "cashLanes": 32,
   "restaurantSeating": 380,
   "latitude": 53.002205,
   "longitude": -1.284448,
   "webpage": "http://www.ikea.com/gb/en/store/nottingham",
   "smaland": 1
 },
 {
   "storeName": "Novosibirsk",
   "storeNumber": 338,
   "storeImage": "ikea_madrid",
   "address": "Ul. Vatunina  6",
   "zipCode": "630078",
   "city": "Novossibirsk",
   "country": "Russia",
   "telephone": "",
   "size": 25719,
   "roomSettings": 59,
   "realLifeHomes": 2,
   "cashLanes": 27,
   "restaurantSeating": 640,
   "latitude": 54.964934,
   "longitude": 82.933588,
   "webpage": "http://www.ikea.com/ru/ru/",
   "smaland": 0
 },
 {
   "storeName": "Nuremberg (Fürth)",
   "storeNumber": 326,
   "storeImage": "ikea_sandiego",
   "address": "Hans Vogel Strasse  110",
   "zipCode": "90765",
   "city": "Fürth",
   "country": "Germany",
   "telephone": "49911765100",
   "size": 33741,
   "roomSettings": 46,
   "realLifeHomes": 3,
   "cashLanes": 42,
   "restaurantSeating": 630,
   "latitude": 49.485241,
   "longitude": 11.009848,
   "webpage": "http://www.ikea.com/de/de/store/fuerth",
   "smaland": 1
 },
 {
   "storeName": "Odense",
   "storeNumber": 172,
   "storeImage": "ikea_tampines",
   "address": "Örbäkvej  91",
   "zipCode": "5220",
   "city": "Odense",
   "country": "Denmark",
   "telephone": "4570150909",
   "size": 35701,
   "roomSettings": 49,
   "realLifeHomes": 3,
   "cashLanes": 28,
   "restaurantSeating": 472,
   "latitude": 55.380511,
   "longitude": 10.431521,
   "webpage": "http://www.ikea.com/dk/da/store/odense",
   "smaland": 1
 },
 {
   "storeName": "Oldenburg",
   "storeNumber": 69,
   "storeImage": "ikea_tempe",
   "address": "Holler Landstrasse  89",
   "zipCode": "26135",
   "city": "Oldenburg",
   "country": "Germany",
   "telephone": "4944121973051",
   "size": 35594,
   "roomSettings": 54,
   "realLifeHomes": 3,
   "cashLanes": 38,
   "restaurantSeating": 570,
   "latitude": 53.1400643,
   "longitude": 8.2576081,
   "webpage": "http://www.ikea.com/de/de/store/oldenburg",
   "smaland": 0
 },
 {
   "storeName": "Omsk",
   "storeNumber": 351,
   "storeImage": "ikea_tottenham",
   "address": "Kirovskij District  Bulvar Arhitektorov  35.",
   "zipCode": "644074",
   "city": "Omsk",
   "country": "Russia",
   "telephone": "783812408141",
   "size": 28250,
   "roomSettings": 53,
   "realLifeHomes": 2,
   "cashLanes": 20,
   "restaurantSeating": 527,
   "latitude": 54.97324,
   "longitude": 73.286663,
   "webpage": "http://www.ikea.com/ru/ru/",
   "smaland": 0
 },
 {
   "storeName": "Örebro",
   "storeNumber": 106,
   "storeImage": "ikea_webley",
   "address": "Kundvägen  2",
   "zipCode": "70231",
   "city": "Örebro",
   "country": "Sweden",
   "telephone": "4619206000",
   "size": 14214,
   "roomSettings": 24,
   "realLifeHomes": 2,
   "cashLanes": 18,
   "restaurantSeating": 310,
   "latitude": 59.211452,
   "longitude": 15.134356,
   "webpage": "http://www.ikea.com/se/sv/store/orebro",
   "smaland": 1
 },
 {
   "storeName": "Orlando",
   "storeNumber": 145,
   "storeImage": "ikea_westchester",
   "address": "Eastgate Drive  4092",
   "zipCode": "32839",
   "city": "Orlando",
   "country": "USA",
   "telephone": "14073553188",
   "size": 28661,
   "roomSettings": 52,
   "realLifeHomes": 3,
   "cashLanes": 19,
   "restaurantSeating": 300,
   "latitude": 28.4837344,
   "longitude": -81.4278112,
   "webpage": "http://www.ikea.com/us/en/store/orlando",
   "smaland": 0
 },
 {
   "storeName": "Orléans",
   "storeNumber": 487,
   "storeImage": "ikea_brooklyn",
   "address": "ZAC DE LIMERE- ALLEE POMME DE PIN",
   "zipCode": "45160",
   "city": "Orléans",
   "country": "France",
   "telephone": "",
   "size": 22800,
   "roomSettings": 0,
   "realLifeHomes": 0,
   "cashLanes": 0,
   "restaurantSeating": 300,
   "latitude": 47.8297143,
   "longitude": 1.9175551,
   "webpage": "http://www.ikea.com/fr/fr/store/",
   "smaland": 1
 },
 {
   "storeName": "Osaka (Tsuruhama)",
   "storeNumber": 496,
   "storeImage": "ikea_burbank",
   "address": "Tsurumachi  2-125-2 (Taisho-Ku)",
   "zipCode": "551-0023",
   "city": "Osaka",
   "country": "Japan",
   "telephone": "",
   "size": 36804,
   "roomSettings": 47,
   "realLifeHomes": 3,
   "cashLanes": 21,
   "restaurantSeating": 750,
   "latitude": 34.638025,
   "longitude": 135.449431,
   "webpage": "http://www.ikea.com/jp/en/store/tsuruhama",
   "smaland": 0
 },
 {
   "storeName": "Oslo (Furuset)",
   "storeNumber": 95,
   "storeImage": "ikea_cairo",
   "address": "Strømsveien  303",
   "zipCode": "1081",
   "city": "Oslo",
   "country": "Norway",
   "telephone": "4723177760",
   "size": 20279,
   "roomSettings": 37,
   "realLifeHomes": 3,
   "cashLanes": 39,
   "restaurantSeating": 310,
   "latitude": 59.9334534,
   "longitude": 10.8718425,
   "webpage": "http://www.ikea.com/no/no/store/furuset",
   "smaland": 1
 },
 {
   "storeName": "Oslo (Slependen)",
   "storeNumber": 91,
   "storeImage": "ikea_canton",
   "address": "Nesbruveien  40",
   "zipCode": "1396",
   "city": "Billingstad",
   "country": "Norway",
   "telephone": "4766985063",
   "size": 38308,
   "roomSettings": 39,
   "realLifeHomes": 3,
   "cashLanes": 40,
   "restaurantSeating": 363,
   "latitude": 59.8736088,
   "longitude": 10.4976219,
   "webpage": "http://www.ikea.com/no/no/store/slependen",
   "smaland": 1
 },
 {
   "storeName": "Osnabrück",
   "storeNumber": 184,
   "storeImage": "ikea_carson",
   "address": "Rheiner Landstrasse  215",
   "zipCode": "49078",
   "city": "Osnabrück",
   "country": "Germany",
   "telephone": "4954118100",
   "size": 27326,
   "roomSettings": 47,
   "realLifeHomes": 3,
   "cashLanes": 31,
   "restaurantSeating": 470,
   "latitude": 52.2650136,
   "longitude": 7.9703493,
   "webpage": "http://www.ikea.com/de/de/store/osnabrueck",
   "smaland": 1
 },
 {
   "storeName": "Ostrava",
   "storeNumber": 309,
   "storeImage": "ikea_elizabeth",
   "address": "Rudna  110",
   "zipCode": "70030",
   "city": "Ostava-Zabreh",
   "country": "Czech Republic",
   "telephone": "420597434101",
   "size": 16458,
   "roomSettings": 36,
   "realLifeHomes": 3,
   "cashLanes": 12,
   "restaurantSeating": 275,
   "latitude": 49.798874,
   "longitude": 18.227683,
   "webpage": "http://www.ikea.com/cz/cs/store/ostrava",
   "smaland": 1
 },
 {
   "storeName": "Ottawa",
   "storeNumber": 4,
   "storeImage": "ikea_emeryville",
   "address": "",
   "zipCode": "",
   "city": "",
   "country": "Canada",
   "telephone": "",
   "size": 36610,
   "roomSettings": 55,
   "realLifeHomes": 3,
   "cashLanes": 36,
   "restaurantSeating": 640,
   "latitude": 45.350282,
   "longitude": -75.7840992,
   "webpage": "",
   "smaland": 0
 },
 {
   "storeName": "Padua",
   "storeNumber": 355,
   "storeImage": "ikea_hamburg",
   "address": "Via Fraccalanza  5",
   "zipCode": "35129",
   "city": "Padova",
   "country": "Italy",
   "telephone": "3904989411",
   "size": 40458,
   "roomSettings": 66,
   "realLifeHomes": 3,
   "cashLanes": 52,
   "restaurantSeating": 605,
   "latitude": 45.4190321,
   "longitude": 11.9331487,
   "webpage": "http://www.ikea.com/it/it/store/padova",
   "smaland": 0
 },
 {
   "storeName": "Paris (Evry)",
   "storeNumber": 82,
   "storeImage": "ikea_madrid",
   "address": "Le Clos Aux Pois (Lisse)",
   "zipCode": "91028",
   "city": "Evry",
   "country": "France",
   "telephone": "330169111601",
   "size": 31489,
   "roomSettings": 42,
   "realLifeHomes": 3,
   "cashLanes": 38,
   "restaurantSeating": 580,
   "latitude": 48.596508,
   "longitude": 2.439437,
   "webpage": "http://www.ikea.com/fr/fr/store/evry",
   "smaland": 1
 },
 {
   "storeName": "Paris (Franconville)",
   "storeNumber": 389,
   "storeImage": "ikea_sandiego",
   "address": "Rue Du General Leclerc  339",
   "zipCode": "95130",
   "city": "Paris",
   "country": "France",
   "telephone": "",
   "size": 33393,
   "roomSettings": 51,
   "realLifeHomes": 3,
   "cashLanes": 44,
   "restaurantSeating": 434,
   "latitude": 48.986414,
   "longitude": 2.21482,
   "webpage": "http://www.ikea.com/fr/fr/store/franconville",
   "smaland": 0
 },
 {
   "storeName": "Paris (Plaisir)",
   "storeNumber": 83,
   "storeImage": "ikea_tampines",
   "address": "Rue Henri Barbusse  202",
   "zipCode": "78370",
   "city": "Paris",
   "country": "France",
   "telephone": "330130792122",
   "size": 25138,
   "roomSettings": 43,
   "realLifeHomes": 3,
   "cashLanes": 34,
   "restaurantSeating": 320,
   "latitude": 48.829338,
   "longitude": 1.967719,
   "webpage": "http://www.ikea.com/fr/fr/store/plaisir",
   "smaland": 1
 },
 {
   "storeName": "Paris (Roissy)",
   "storeNumber": 131,
   "storeImage": "ikea_tempe",
   "address": "Rue Des Buttes",
   "zipCode": "95950",
   "city": "Paris",
   "country": "France",
   "telephone": "330149901600",
   "size": 31306,
   "roomSettings": 51,
   "realLifeHomes": 3,
   "cashLanes": 40,
   "restaurantSeating": 500,
   "latitude": 48.975057,
   "longitude": 2.49421,
   "webpage": "http://www.ikea.com/fr/fr/store/roissy",
   "smaland": 0
 },
 {
   "storeName": "Paris (Thiais)",
   "storeNumber": 432,
   "storeImage": "ikea_tottenham",
   "address": "Zac Du Moulin A Cailloux",
   "zipCode": "94320",
   "city": "Paris",
   "country": "France",
   "telephone": "",
   "size": 19844,
   "roomSettings": 42,
   "realLifeHomes": 3,
   "cashLanes": 32,
   "restaurantSeating": 450,
   "latitude": 48.7590871,
   "longitude": 2.3854344,
   "webpage": "http://www.ikea.com/fr/fr/store/thiais",
   "smaland": 1
 },
 {
   "storeName": "Paris (Vélizy)",
   "storeNumber": 285,
   "storeImage": "ikea_webley",
   "address": "Rue du Petit Clamart  3",
   "zipCode": "78140",
   "city": "Velizy",
   "country": "France",
   "telephone": "",
   "size": 10237,
   "roomSettings": 34,
   "realLifeHomes": 0,
   "cashLanes": 6,
   "restaurantSeating": 66,
   "latitude": 48.7833,
   "longitude": 2.22435,
   "webpage": "http://www.ikea.com/fr/fr/store/velizy",
   "smaland": 1
 },
 {
   "storeName": "Paris (Villiers sur Marne)",
   "storeNumber": 240,
   "storeImage": "ikea_westchester",
   "address": "Rue Jean Jaures  35",
   "zipCode": "94350",
   "city": "Paris",
   "country": "France",
   "telephone": "330149414000",
   "size": 33016,
   "roomSettings": 32,
   "realLifeHomes": 4,
   "cashLanes": 45,
   "restaurantSeating": 500,
   "latitude": 48.828015,
   "longitude": 2.530101,
   "webpage": "http://www.ikea.com/fr/fr/store/villiers",
   "smaland": 0
 },
 {
   "storeName": "Parma",
   "storeNumber": 303,
   "storeImage": "ikea_brooklyn",
   "address": "Strada Burla  localita Uguzzolo",
   "zipCode": "43100",
   "city": "Parma",
   "country": "Italy",
   "telephone": "",
   "size": 32824,
   "roomSettings": 51,
   "realLifeHomes": 3,
   "cashLanes": 32,
   "restaurantSeating": 430,
   "latitude": 44.830471,
   "longitude": 10.364177,
   "webpage": "http://www.ikea.com/it/it/store/parma",
   "smaland": 0
 },
 {
   "storeName": "Perth",
   "storeNumber": 191,
   "storeImage": "ikea_burbank",
   "address": "Ellen Stirling Blvd  6",
   "zipCode": "6018",
   "city": "Innaloo",
   "country": "Australia",
   "telephone": "61892014532",
   "size": 26600,
   "roomSettings": 68,
   "realLifeHomes": 4,
   "cashLanes": 32,
   "restaurantSeating": 718,
   "latitude": -31.89661,
   "longitude": 115.803833,
   "webpage": "http://www.ikea.com/aa/en/store/perth",
   "smaland": 1
 },
 {
   "storeName": "Pescara (San Giovanni Teatino)",
   "storeNumber": 29,
   "storeImage": "ikea_cairo",
   "address": "Via Regolizie snc",
   "zipCode": "66020",
   "city": "San Giovanni Teatino",
   "country": "Italy",
   "telephone": "",
   "size": 33300,
   "roomSettings": 0,
   "realLifeHomes": 0,
   "cashLanes": 0,
   "restaurantSeating": 0,
   "latitude": 42.3929693,
   "longitude": 14.1717235,
   "webpage": "",
   "smaland": 0
 },
 {
   "storeName": "Philadelphia (Conshohocken)",
   "storeNumber": 211,
   "storeImage": "ikea_canton",
   "address": "Alan Wood Road  400",
   "zipCode": "19428",
   "city": "Conshohocken",
   "country": "USA",
   "telephone": "",
   "size": 34248,
   "roomSettings": 44,
   "realLifeHomes": 1,
   "cashLanes": 26,
   "restaurantSeating": 295,
   "latitude": 40.0946379,
   "longitude": -75.3063316,
   "webpage": "http://www.ikea.com/us/en/store/conshohocken",
   "smaland": 1
 },
 {
   "storeName": "Philadelphia (South)",
   "storeNumber": 215,
   "storeImage": "ikea_carson",
   "address": "Christopher Columbus Blvd  2206",
   "zipCode": "19148",
   "city": "Philadelphia",
   "country": "USA",
   "telephone": "",
   "size": 28999,
   "roomSettings": 41,
   "realLifeHomes": 3,
   "cashLanes": 25,
   "restaurantSeating": 285,
   "latitude": 39.917175,
   "longitude": -75.14194,
   "webpage": "http://www.ikea.com/us/en/store/philadelphia",
   "smaland": 0
 },
 {
   "storeName": "Phoenix (Tempe)",
   "storeNumber": 209,
   "storeImage": "ikea_elizabeth",
   "address": "West Ikea Way  2110",
   "zipCode": "85284",
   "city": "Tempe",
   "country": "USA",
   "telephone": "14807858209",
   "size": 26868,
   "roomSettings": 43,
   "realLifeHomes": 3,
   "cashLanes": 24,
   "restaurantSeating": 283,
   "latitude": 33.3408659,
   "longitude": -111.9705797,
   "webpage": "http://www.ikea.com/us/en/store/tempe",
   "smaland": 1
 },
 {
   "storeName": "Pisa",
   "storeNumber": 314,
   "storeImage": "ikea_emeryville",
   "address": "Via del Gargalone",
   "zipCode": "56121",
   "city": "Pisa",
   "country": "Italy",
   "telephone": "",
   "size": 0,
   "roomSettings": 57,
   "realLifeHomes": 3,
   "cashLanes": 33,
   "restaurantSeating": 410,
   "latitude": 43.692642,
   "longitude": 10.383101,
   "webpage": "",
   "smaland": 1
 },
 {
   "storeName": "Pittsburgh",
   "storeNumber": 153,
   "storeImage": "ikea_hamburg",
   "address": "Park Manor Blvd  2001",
   "zipCode": "15205",
   "city": "Pittsburgh",
   "country": "USA",
   "telephone": "14127470747",
   "size": 18180,
   "roomSettings": 28,
   "realLifeHomes": 0,
   "cashLanes": 13,
   "restaurantSeating": 175,
   "latitude": 40.4519995,
   "longitude": -80.1682198,
   "webpage": "http://www.ikea.com/us/en/store/pittsburgh",
   "smaland": 1
 },
 {
   "storeName": "Portland",
   "storeNumber": 28,
   "storeImage": "ikea_madrid",
   "address": "Cascades Parkway N.E.  10280",
   "zipCode": "97201",
   "city": "Portland",
   "country": "USA",
   "telephone": "15032818028",
   "size": 27450,
   "roomSettings": 44,
   "realLifeHomes": 2,
   "cashLanes": 21,
   "restaurantSeating": 278,
   "latitude": 45.5712315,
   "longitude": -122.5532041,
   "webpage": "http://www.ikea.com/us/en/store/portland",
   "smaland": 1
 },
 {
   "storeName": "Porto (Matosinhos)",
   "storeNumber": 9,
   "storeImage": "ikea_sandiego",
   "address": "Av. Óscar Lopes",
   "zipCode": "4450-745",
   "city": "Matosinhos",
   "country": "Portugal",
   "telephone": "351229980600",
   "size": 35916,
   "roomSettings": 63,
   "realLifeHomes": 2,
   "cashLanes": 38,
   "restaurantSeating": 534,
   "latitude": 41.2101851,
   "longitude": -8.6881113,
   "webpage": "http://www.ikea.com/pt/pt/store/matosinhos",
   "smaland": 0
 },
 {
   "storeName": "Poznan",
   "storeNumber": 205,
   "storeImage": "ikea_tampines",
   "address": "Ul. Szwedzka  10",
   "zipCode": "61285",
   "city": "Poznan",
   "country": "Poland",
   "telephone": "48616507111",
   "size": 29975,
   "roomSettings": 60,
   "realLifeHomes": 3,
   "cashLanes": 24,
   "restaurantSeating": 490,
   "latitude": 52.383416,
   "longitude": 16.986198,
   "webpage": "http://www.ikea.com/pl/pl/store/poznan",
   "smaland": 0
 },
 {
   "storeName": "Prague (Cerny Most)",
   "storeNumber": 408,
   "storeImage": "ikea_tempe",
   "address": "Chlumecka  10/664",
   "zipCode": "19800",
   "city": "Praha 9-cerny Most",
   "country": "Czech Republic",
   "telephone": "420251610110",
   "size": 33733,
   "roomSettings": 50,
   "realLifeHomes": 3,
   "cashLanes": 32,
   "restaurantSeating": 520,
   "latitude": 50.104389,
   "longitude": 14.58734,
   "webpage": "http://www.ikea.com/cz/cs/store/praha_cerny_most",
   "smaland": 1
 },
 {
   "storeName": "Prague (Zlicin)",
   "storeNumber": 178,
   "storeImage": "ikea_tottenham",
   "address": "Skandinavska  1/131",
   "zipCode": "15500",
   "city": "Prague",
   "country": "Czech Republic",
   "telephone": "420251610110",
   "size": 21625,
   "roomSettings": 52,
   "realLifeHomes": 3,
   "cashLanes": 15,
   "restaurantSeating": 450,
   "latitude": 50.051047,
   "longitude": 14.293512,
   "webpage": "http://www.ikea.com/cz/cs/store/praha_zlicin",
   "smaland": 0
 },
 {
   "storeName": "Raisio",
   "storeNumber": 301,
   "storeImage": "ikea_webley",
   "address": "Itäniityntie  15",
   "zipCode": "21280",
   "city": "Raisio",
   "country": "Finland",
   "telephone": "",
   "size": 28115,
   "roomSettings": 47,
   "realLifeHomes": 3,
   "cashLanes": 26,
   "restaurantSeating": 450,
   "latitude": 60.494694,
   "longitude": 22.228973,
   "webpage": "http://www.ikea.com/fi/fi/store/raisio",
   "smaland": 1
 },
 {
   "storeName": "Reading",
   "storeNumber": 461,
   "storeImage": "ikea_westchester",
   "address": "Pincents Ln,Calcot",
   "zipCode": "RG31 7SG",
   "city": "Reading",
   "country": "United Kingdom",
   "telephone": "",
   "size": 0,
   "roomSettings": 0,
   "realLifeHomes": 0,
   "cashLanes": 0,
   "restaurantSeating": 0,
   "latitude": 51.44201,
   "longitude": -1.06726,
   "webpage": "http://www.ikea.com/gb/en/store/reading",
   "smaland": 0
 },
 {
   "storeName": "Regensburg",
   "storeNumber": 229,
   "storeImage": "ikea_brooklyn",
   "address": "Sulzfeldstrasse  7",
   "zipCode": "93055",
   "city": "Regensburg",
   "country": "Germany",
   "telephone": "4994178440",
   "size": 24411,
   "roomSettings": 40,
   "realLifeHomes": 3,
   "cashLanes": 24,
   "restaurantSeating": 335,
   "latitude": 49.0017193,
   "longitude": 12.1777113,
   "webpage": "http://www.ikea.com/de/de/store/regensburg",
   "smaland": 1
 },
 {
   "storeName": "Reims (Thillois)",
   "storeNumber": 198,
   "storeImage": "ikea_burbank",
   "address": "ZAC Nord Thillois",
   "zipCode": "51370",
   "city": "Thillois",
   "country": "France",
   "telephone": "33326028787",
   "size": 26580,
   "roomSettings": 47,
   "realLifeHomes": 2,
   "cashLanes": 26,
   "restaurantSeating": 500,
   "latitude": 49.2595763,
   "longitude": 3.9635921,
   "webpage": "http://www.ikea.com/fr/fr/store/reims",
   "smaland": 1
 },
 {
   "storeName": "Rennes (Pacé)",
   "storeNumber": 177,
   "storeImage": "ikea_cairo",
   "address": "Lieu Dit La Giraudais",
   "zipCode": "35740",
   "city": "Pace",
   "country": "France",
   "telephone": "3329965800",
   "size": 26712,
   "roomSettings": 0,
   "realLifeHomes": 0,
   "cashLanes": 26,
   "restaurantSeating": 400,
   "latitude": 48.138537,
   "longitude": -1.761306,
   "webpage": "http://www.ikea.com/fr/fr/store/rennes",
   "smaland": 0
 },
 {
   "storeName": "Reykjavik",
   "storeNumber": 195,
   "storeImage": "ikea_canton",
   "address": "Kauptun  4",
   "zipCode": "210",
   "city": "Gardabaer",
   "country": "Iceland",
   "telephone": "3545202500",
   "size": 20673,
   "roomSettings": 51,
   "realLifeHomes": 3,
   "cashLanes": 15,
   "restaurantSeating": 250,
   "latitude": 64.0743339,
   "longitude": -21.919173,
   "webpage": "http://www.ikea.is/",
   "smaland": 0
 },
 {
   "storeName": "Rimini",
   "storeNumber": 111,
   "storeImage": "ikea_carson",
   "address": "Via Tolemaide snc",
   "zipCode": "47900",
   "city": "Rimini",
   "country": "Italy",
   "telephone": "3905411848",
   "size": 31387,
   "roomSettings": 49,
   "realLifeHomes": 3,
   "cashLanes": 31,
   "restaurantSeating": 496,
   "latitude": 44.080038,
   "longitude": 12.475521,
   "webpage": "http://www.ikea.com/it/it/store/rimini",
   "smaland": 1
 },
 {
   "storeName": "Riyadh",
   "storeNumber": 197,
   "storeImage": "ikea_elizabeth",
   "address": "P.O. Box 91285 (Exit 16)",
   "zipCode": "11633",
   "city": "Riyadh",
   "country": "Saudi Arabia",
   "telephone": "96612442233",
   "size": 28700,
   "roomSettings": 53,
   "realLifeHomes": 3,
   "cashLanes": 22,
   "restaurantSeating": 390,
   "latitude": 24.659103,
   "longitude": 46.787273,
   "webpage": "http://www.ikea.com.sa/en/store/Riyadh/",
   "smaland": 0
 },
 {
   "storeName": "Rome (Anagnina)",
   "storeNumber": 234,
   "storeImage": "ikea_emeryville",
   "address": "Via Anagnina  81",
   "zipCode": "173",
   "city": "Roma",
   "country": "Italy",
   "telephone": "390672458864",
   "size": 26200,
   "roomSettings": 44,
   "realLifeHomes": 3,
   "cashLanes": 44,
   "restaurantSeating": 390,
   "latitude": 41.8354949,
   "longitude": 12.5940081,
   "webpage": "http://www.ikea.com/it/it/store/roma_anagnina",
   "smaland": 1
 },
 {
   "storeName": "Rome (Porta di Roma)",
   "storeNumber": 427,
   "storeImage": "ikea_hamburg",
   "address": "Via Casale Redicicoli  501",
   "zipCode": "139",
   "city": "Roma",
   "country": "Italy",
   "telephone": "390687262211",
   "size": 30620,
   "roomSettings": 0,
   "realLifeHomes": 0,
   "cashLanes": 48,
   "restaurantSeating": 500,
   "latitude": 41.9729369,
   "longitude": 12.5414132,
   "webpage": "http://www.ikea.com/it/it/store/roma_portadiroma",
   "smaland": 0
 },
 {
   "storeName": "Rostock",
   "storeNumber": 92,
   "storeImage": "ikea_madrid",
   "address": "Messestrasse  25",
   "zipCode": "18069",
   "city": "Rostock",
   "country": "Germany",
   "telephone": "493816669181",
   "size": 27183,
   "roomSettings": 48,
   "realLifeHomes": 3,
   "cashLanes": 26,
   "restaurantSeating": 450,
   "latitude": 54.1084964,
   "longitude": 12.050861,
   "webpage": "http://www.ikea.com/de/de/store/rostock",
   "smaland": 1
 },
 {
   "storeName": "Rostov-on-Don",
   "storeNumber": 443,
   "storeImage": "ikea_sandiego",
   "address": "Novosherkasskoe Shosse  33 (Aksai)",
   "zipCode": "346710",
   "city": "Rostov On Don",
   "country": "Russia",
   "telephone": "",
   "size": 24515,
   "roomSettings": 57,
   "realLifeHomes": 2,
   "cashLanes": 24,
   "restaurantSeating": 650,
   "latitude": 47.288127,
   "longitude": 39.847492,
   "webpage": "http://www.ikea.com/ru/ru/",
   "smaland": 1
 },
 {
   "storeName": "Rouen (Tourville-la-Rivière)",
   "storeNumber": 163,
   "storeImage": "ikea_tampines",
   "address": "Avenue Gustave Picard",
   "zipCode": "76410",
   "city": "Tourville La Riviere",
   "country": "France",
   "telephone": "",
   "size": 27574,
   "roomSettings": 54,
   "realLifeHomes": 2,
   "cashLanes": 28,
   "restaurantSeating": 492,
   "latitude": 49.331816,
   "longitude": 1.096953,
   "webpage": "http://www.ikea.com/fr/fr/store/rouen",
   "smaland": 1
 },
 {
   "storeName": "Saarlouis",
   "storeNumber": 227,
   "storeImage": "ikea_tempe",
   "address": "Im Hader  1-3",
   "zipCode": "66740",
   "city": "Saarlouis",
   "country": "Germany",
   "telephone": "49683194430",
   "size": 29821,
   "roomSettings": 42,
   "realLifeHomes": 3,
   "cashLanes": 27,
   "restaurantSeating": 320,
   "latitude": 49.293437,
   "longitude": 6.760339,
   "webpage": "http://www.ikea.com/de/de/store/saarlouis",
   "smaland": 1
 },
 {
   "storeName": "Sacramento (West)",
   "storeNumber": 157,
   "storeImage": "ikea_tottenham",
   "address": "Ikea Court  700",
   "zipCode": "95605",
   "city": "West Sacramento",
   "country": "USA",
   "telephone": "19163760597",
   "size": 24227,
   "roomSettings": 49,
   "realLifeHomes": 3,
   "cashLanes": 18,
   "restaurantSeating": 252,
   "latitude": 38.5867264,
   "longitude": -121.5534923,
   "webpage": "http://www.ikea.com/us/en/store/west_sacramento",
   "smaland": 0
 },
 {
   "storeName": "Saint Etienne",
   "storeNumber": 431,
   "storeImage": "ikea_webley",
   "address": "Rue Jean Husse",
   "zipCode": "42000",
   "city": "Saint-Etienne",
   "country": "France",
   "telephone": "330477345700",
   "size": 26738,
   "roomSettings": 44,
   "realLifeHomes": 3,
   "cashLanes": 28,
   "restaurantSeating": 442,
   "latitude": 45.449265,
   "longitude": 4.419721,
   "webpage": "http://www.ikea.com/fr/fr/store/st_etienne",
   "smaland": 0
 },
 {
   "storeName": "Salerno (Baronissi)",
   "storeNumber": 458,
   "storeImage": "ikea_westchester",
   "address": "Via S.Allende",
   "zipCode": "84081",
   "city": "Baronissi",
   "country": "Italy",
   "telephone": "",
   "size": 28151,
   "roomSettings": 56,
   "realLifeHomes": 3,
   "cashLanes": 31,
   "restaurantSeating": 400,
   "latitude": 40.750742,
   "longitude": 14.778224,
   "webpage": "http://www.ikea.com/it/it/store/salerno",
   "smaland": 1
 },
 {
   "storeName": "Salt Lake City (Draper)",
   "storeNumber": 103,
   "storeImage": "ikea_brooklyn",
   "address": "West Ikea Way  67",
   "zipCode": "84020",
   "city": "Draper",
   "country": "USA",
   "telephone": "18015724532",
   "size": 23970,
   "roomSettings": 50,
   "realLifeHomes": 3,
   "cashLanes": 17,
   "restaurantSeating": 298,
   "latitude": 40.508739,
   "longitude": -111.892805,
   "webpage": "http://www.ikea.com/us/en/store/draper",
   "smaland": 0
 },
 {
   "storeName": "Salzburg",
   "storeNumber": 386,
   "storeImage": "ikea_burbank",
   "address": "Europastrasse  5",
   "zipCode": "5020",
   "city": "Salzburg",
   "country": "Austria",
   "telephone": "43662431000",
   "size": 24632,
   "roomSettings": 45,
   "realLifeHomes": 0,
   "cashLanes": 26,
   "restaurantSeating": 390,
   "latitude": 47.81737,
   "longitude": 13.006843,
   "webpage": "http://www.ikea.com/at/de/store/salzburg",
   "smaland": 1
 },
 {
   "storeName": "Samara",
   "storeNumber": 442,
   "storeImage": "ikea_cairo",
   "address": "Moskovskoe Shosse 5",
   "zipCode": "443028",
   "city": "Samara",
   "country": "Russia",
   "telephone": "",
   "size": 23808,
   "roomSettings": 50,
   "realLifeHomes": 2,
   "cashLanes": 22,
   "restaurantSeating": 560,
   "latitude": 53.326493,
   "longitude": 50.302512,
   "webpage": "",
   "smaland": 0
 },
 {
   "storeName": "San Diego",
   "storeNumber": 166,
   "storeImage": "ikea_canton",
   "address": "Fenton Parkway  2149",
   "zipCode": "92108",
   "city": "San Diego",
   "country": "USA",
   "telephone": "",
   "size": 18783,
   "roomSettings": 29,
   "realLifeHomes": 1,
   "cashLanes": 16,
   "restaurantSeating": 150,
   "latitude": 32.7799574,
   "longitude": -117.1265084,
   "webpage": "http://www.ikea.com/us/en/store/san_diego",
   "smaland": 1
 },
 {
   "storeName": "San Francisco (East Palo Alto)",
   "storeNumber": 347,
   "storeImage": "ikea_carson",
   "address": "Bayshore Road  1700",
   "zipCode": "94303",
   "city": "East Palo Alto",
   "country": "USA",
   "telephone": "",
   "size": 30405,
   "roomSettings": 43,
   "realLifeHomes": 3,
   "cashLanes": 26,
   "restaurantSeating": 275,
   "latitude": 37.4609816,
   "longitude": -122.1392181,
   "webpage": "http://www.ikea.com/us/en/store/east_palo_alto",
   "smaland": 1
 },
 {
   "storeName": "San Francisco (Emeryville)",
   "storeNumber": 165,
   "storeImage": "ikea_elizabeth",
   "address": "Shellmound Street  4400",
   "zipCode": "94608",
   "city": "Emeryville",
   "country": "USA",
   "telephone": "15109850165",
   "size": 26883,
   "roomSettings": 43,
   "realLifeHomes": 3,
   "cashLanes": 23,
   "restaurantSeating": 256,
   "latitude": 37.8314987,
   "longitude": -122.2918419,
   "webpage": "http://www.ikea.com/us/en/store/emeryville",
   "smaland": 0
 },
 {
   "storeName": "Santo Domingo",
   "storeNumber": 439,
   "storeImage": "ikea_emeryville",
   "address": "J F Kennedy Esq Bienvenido G Gautier",
   "zipCode": "CP10508",
   "city": "Santa Domingo",
   "country": "Dominican Republic",
   "telephone": "",
   "size": 24999,
   "roomSettings": 52,
   "realLifeHomes": 3,
   "cashLanes": 24,
   "restaurantSeating": 761,
   "latitude": 18.485506,
   "longitude": -69.938745,
   "webpage": "",
   "smaland": 0
 },
 {
   "storeName": "Seattle (Renton)",
   "storeNumber": 488,
   "storeImage": "ikea_hamburg",
   "address": "41rd Street S.W.  601",
   "zipCode": "98057",
   "city": "Renton",
   "country": "USA",
   "telephone": "14256564404",
   "size": 0,
   "roomSettings": 0,
   "realLifeHomes": 0,
   "cashLanes": 0,
   "restaurantSeating": 0,
   "latitude": 47.442426,
   "longitude": -122.225692,
   "webpage": "http://www.ikea.com/us/en/store/seattle",
   "smaland": 1
 },
 {
   "storeName": "Sendai",
   "storeNumber": 392,
   "storeImage": "ikea_madrid",
   "address": "2-1-2 Asuto Nagamachi, Taihaku-ku",
   "zipCode": "982-0077",
   "city": "Sendai",
   "country": "Japan",
   "telephone": "",
   "size": 30000,
   "roomSettings": 0,
   "realLifeHomes": 0,
   "cashLanes": 0,
   "restaurantSeating": 430,
   "latitude": 38.2255,
   "longitude": 140.8861,
   "webpage": "",
   "smaland": 0
 },
 {
   "storeName": "Seoul (Gwangmyeong)",
   "storeNumber": 373,
   "storeImage": "ikea_sandiego",
   "address": "500 Iljik-dong",
   "zipCode": "423090",
   "city": "Gwangmyeong City",
   "country": "South Korea",
   "telephone": "",
   "size": 58047,
   "roomSettings": 0,
   "realLifeHomes": 0,
   "cashLanes": 0,
   "restaurantSeating": 1020,
   "latitude": 37.423787,
   "longitude": 126.883528,
   "webpage": "",
   "smaland": 1
 },
 {
   "storeName": "Seville (Castilleja de la Cuesta)",
   "storeNumber": 283,
   "storeImage": "ikea_tampines",
   "address": "C/Virgen De Loreto  12",
   "zipCode": "41950",
   "city": "Sevilla",
   "country": "Spain",
   "telephone": "34954348800",
   "size": 27051,
   "roomSettings": 41,
   "realLifeHomes": 3,
   "cashLanes": 29,
   "restaurantSeating": 560,
   "latitude": 37.383754,
   "longitude": -6.0472553,
   "webpage": "http://www.ikea.com/es/es/store/sevilla",
   "smaland": 0
 },
 {
   "storeName": "Shanghai (Baoshan)",
   "storeNumber": 247,
   "storeImage": "ikea_tempe",
   "address": "No. 1818, Hutai Road",
   "zipCode": "200436",
   "city": "Shanghai",
   "country": "China",
   "telephone": "",
   "size": 55032,
   "roomSettings": 0,
   "realLifeHomes": 0,
   "cashLanes": 0,
   "restaurantSeating": 720,
   "latitude": 31.2574996,
   "longitude": 121.4501272,
   "webpage": "",
   "smaland": 1
 },
 {
   "storeName": "Shanghai (Bei Cai)",
   "storeNumber": 885,
   "storeImage": "ikea_tottenham",
   "address": "No. 550 Linyu Rd.",
   "zipCode": "201204",
   "city": "Shanghai",
   "country": "China",
   "telephone": "862120304532",
   "size": 3901,
   "roomSettings": 0,
   "realLifeHomes": 5,
   "cashLanes": 36,
   "restaurantSeating": 715,
   "latitude": 31.163027,
   "longitude": 121.557666,
   "webpage": "http://www.ikea.com/cn/en/store/beicai",
   "smaland": 1
 },
 {
   "storeName": "Shanghai (Xuhui)",
   "storeNumber": 856,
   "storeImage": "ikea_webley",
   "address": "1-2 Floor, No.126 Cao Xi Road",
   "zipCode": "200235",
   "city": "Shanghai",
   "country": "China",
   "telephone": "",
   "size": 38217,
   "roomSettings": 56,
   "realLifeHomes": 3,
   "cashLanes": 35,
   "restaurantSeating": 748,
   "latitude": 31.180022,
   "longitude": 121.42885,
   "webpage": "",
   "smaland": 1
 },
 {
   "storeName": "Shenyang",
   "storeNumber": 886,
   "storeImage": "ikea_westchester",
   "address": "No. 20 North Xinghua Street Tiexi District",
   "zipCode": "110025",
   "city": "Shenyang",
   "country": "China",
   "telephone": "862425622345",
   "size": 50327,
   "roomSettings": 66,
   "realLifeHomes": 0,
   "cashLanes": 28,
   "restaurantSeating": 720,
   "latitude": 41.8065036,
   "longitude": 123.3723592,
   "webpage": "http://www.ikea.com/cn/en/store/shenyang",
   "smaland": 1
 },
 {
   "storeName": "Shenzhen",
   "storeNumber": 833,
   "storeImage": "ikea_brooklyn",
   "address": "Beihuan Dadao  8188 (Nanshan District)",
   "zipCode": "518067",
   "city": "Shenzhen",
   "country": "China",
   "telephone": "8675586022427",
   "size": 33280,
   "roomSettings": 60,
   "realLifeHomes": 3,
   "cashLanes": 26,
   "restaurantSeating": 740,
   "latitude": 22.5581176,
   "longitude": 113.960656,
   "webpage": "http://www.ikea.com/cn/en/store/shenzhen",
   "smaland": 0
 },
 {
   "storeName": "Siegen",
   "storeNumber": 369,
   "storeImage": "ikea_burbank",
   "address": "Wallhausenstrasse  60",
   "zipCode": "57072",
   "city": "Siegen",
   "country": "Germany",
   "telephone": "4927123890",
   "size": 23398,
   "roomSettings": 46,
   "realLifeHomes": 3,
   "cashLanes": 26,
   "restaurantSeating": 399,
   "latitude": 50.862657,
   "longitude": 8.002292,
   "webpage": "http://www.ikea.com/de/de/store/siegen",
   "smaland": 0
 },
 {
   "storeName": "Singapore (Alexandra)",
   "storeNumber": 45,
   "storeImage": "ikea_cairo",
   "address": "Alexandra Road  317",
   "zipCode": "159965",
   "city": "Singapore",
   "country": "Singapore",
   "telephone": "6567866868",
   "size": 22500,
   "roomSettings": 48,
   "realLifeHomes": 3,
   "cashLanes": 20,
   "restaurantSeating": 400,
   "latitude": 1.288074,
   "longitude": 103.805866,
   "webpage": "http://www.ikea.com/sg/en/store/alexandra",
   "smaland": 1
 },
 {
   "storeName": "Singapore (Tampines)",
   "storeNumber": 22,
   "storeImage": "ikea_canton",
   "address": "Tampines North Dr.2  60",
   "zipCode": "528764",
   "city": "Singapore",
   "country": "Singapore",
   "telephone": "6567866868",
   "size": 30000,
   "roomSettings": 55,
   "realLifeHomes": 3,
   "cashLanes": 26,
   "restaurantSeating": 580,
   "latitude": 1.373951,
   "longitude": 103.932559,
   "webpage": "http://www.ikea.com/sg/en/store/tampines",
   "smaland": 0
 },
 {
   "storeName": "Sofia",
   "storeNumber": 181,
   "storeImage": "ikea_carson",
   "address": "216 Okolovrasten Pat",
   "zipCode": "1797",
   "city": "Sofia",
   "country": "Bulgaria",
   "telephone": "",
   "size": 28698,
   "roomSettings": 55,
   "realLifeHomes": 3,
   "cashLanes": 19,
   "restaurantSeating": 620,
   "latitude": 42.6964917,
   "longitude": 23.3260106,
   "webpage": "",
   "smaland": 1
 },
 {
   "storeName": "Southampton",
   "storeNumber": 125,
   "storeImage": "ikea_elizabeth",
   "address": "West Quay Road",
   "zipCode": "SO15 1BA",
   "city": "Southampton",
   "country": "United Kingdom",
   "telephone": "442381000000",
   "size": 29366,
   "roomSettings": 68,
   "realLifeHomes": 3,
   "cashLanes": 31,
   "restaurantSeating": 520,
   "latitude": 50.903235,
   "longitude": -1.41097,
   "webpage": "http://www.ikea.com/gb/en/store/southampton",
   "smaland": 0
 },
 {
   "storeName": "St. Gallen",
   "storeNumber": 917,
   "storeImage": "ikea_emeryville",
   "address": "Zuercherstrasse  460",
   "zipCode": "9015",
   "city": "St. Gallen",
   "country": "Switzerland",
   "telephone": "",
   "size": 30852,
   "roomSettings": 41,
   "realLifeHomes": 2,
   "cashLanes": 25,
   "restaurantSeating": 425,
   "latitude": 47.407666,
   "longitude": 9.3057,
   "webpage": "http://www.ikea.com/ch/de/store/stgallen",
   "smaland": 1
 },
 {
   "storeName": "St. Louis (Missouri)",
   "storeNumber": 410,
   "storeImage": "ikea_hamburg",
   "address": "1 Ikea Way",
   "zipCode": "63108",
   "city": "St.Louis",
   "country": "USA",
   "telephone": "",
   "size": 35303,
   "roomSettings": 0,
   "realLifeHomes": 0,
   "cashLanes": 0,
   "restaurantSeating": 450,
   "latitude": 38.634597,
   "longitude": -90.246661,
   "webpage": "",
   "smaland": 1
 },
 {
   "storeName": "St. Petersburg (Dybenko)",
   "storeNumber": 426,
   "storeImage": "ikea_madrid",
   "address": "Murmansk Road (Microregion IKEA)",
   "zipCode": "188680",
   "city": "Kudrovo",
   "country": "Russia",
   "telephone": "",
   "size": 27077,
   "roomSettings": 0,
   "realLifeHomes": 0,
   "cashLanes": 30,
   "restaurantSeating": 740,
   "latitude": 59.891902,
   "longitude": 30.51039,
   "webpage": "http://www.ikea.com/ru/ru/",
   "smaland": 0
 },
 {
   "storeName": "St. Petersburg (Parnas)",
   "storeNumber": 464,
   "storeImage": "ikea_sandiego",
   "address": "Priozerskoye Shosse",
   "zipCode": "188660",
   "city": "Burgy",
   "country": "Russia",
   "telephone": "",
   "size": 26552,
   "roomSettings": 51,
   "realLifeHomes": 2,
   "cashLanes": 30,
   "restaurantSeating": 700,
   "latitude": 60.092556,
   "longitude": 30.381732,
   "webpage": "http://www.ikea.com/ru/ru/",
   "smaland": 0
 },
 {
   "storeName": "Stavanger (Forus)",
   "storeNumber": 126,
   "storeImage": "ikea_tampines",
   "address": "Grenseveien 2",
   "zipCode": "4313",
   "city": "Sandnes",
   "country": "Norway",
   "telephone": "4751636580",
   "size": 21955,
   "roomSettings": 52,
   "realLifeHomes": 3,
   "cashLanes": 21,
   "restaurantSeating": 300,
   "latitude": 58.887316,
   "longitude": 5.7207548,
   "webpage": "http://www.ikea.com/no/no/store/forus",
   "smaland": 1
 },
 {
   "storeName": "Stockholm (Barkarby)",
   "storeNumber": 19,
   "storeImage": "ikea_tempe",
   "address": "Folkungavägen  50",
   "zipCode": "17529",
   "city": "Järfälla",
   "country": "Sweden",
   "telephone": "4687954000",
   "size": 38649,
   "roomSettings": 49,
   "realLifeHomes": 3,
   "cashLanes": 46,
   "restaurantSeating": 635,
   "latitude": 59.421196,
   "longitude": 17.858891,
   "webpage": "http://www.ikea.com/se/sv/store/barkarby",
   "smaland": 0
 },
 {
   "storeName": "Stockholm (Kungens Kurva)",
   "storeNumber": 12,
   "storeImage": "ikea_tottenham",
   "address": "Ekgårdsvägen  1",
   "zipCode": "12722",
   "city": "Skärholmen",
   "country": "Sweden",
   "telephone": "4687448300",
   "size": 56451,
   "roomSettings": 56,
   "realLifeHomes": 4,
   "cashLanes": 52,
   "restaurantSeating": 684,
   "latitude": 59.271514,
   "longitude": 17.917094,
   "webpage": "http://www.ikea.com/se/sv/store/kurvan",
   "smaland": 1
 },
 {
   "storeName": "Strasbourg",
   "storeNumber": 239,
   "storeImage": "ikea_webley",
   "address": "Place Des Abattoirs  28",
   "zipCode": "67000",
   "city": "Strasbourg",
   "country": "France",
   "telephone": "330388275767",
   "size": 20341,
   "roomSettings": 0,
   "realLifeHomes": 3,
   "cashLanes": 25,
   "restaurantSeating": 320,
   "latitude": 48.600352,
   "longitude": 7.730628,
   "webpage": "http://www.ikea.com/fr/fr/store/strasbourg",
   "smaland": 0
 },
 {
   "storeName": "Stuttgart (Ludwigsburg)",
   "storeNumber": 225,
   "storeImage": "ikea_westchester",
   "address": "Heinkelstrasse  10",
   "zipCode": "71634",
   "city": "Ludwigsburg",
   "country": "Germany",
   "telephone": "49714138320",
   "size": 27232,
   "roomSettings": 49,
   "realLifeHomes": 3,
   "cashLanes": 36,
   "restaurantSeating": 520,
   "latitude": 48.918359,
   "longitude": 9.153822,
   "webpage": "http://www.ikea.com/de/de/store/ludwigsburg",
   "smaland": 1
 },
 {
   "storeName": "Stuttgart (Sindelfingen)",
   "storeNumber": 224,
   "storeImage": "ikea_brooklyn",
   "address": "Hans Martin Schleyer Strasse  2",
   "zipCode": "71063",
   "city": "Sindelfingen",
   "country": "Germany",
   "telephone": "497031610130",
   "size": 29566,
   "roomSettings": 34,
   "realLifeHomes": 3,
   "cashLanes": 12,
   "restaurantSeating": 340,
   "latitude": 48.701185,
   "longitude": 9.005792,
   "webpage": "http://www.ikea.com/de/de/store/sindelfingen",
   "smaland": 1
 },
 {
   "storeName": "Sundsvall",
   "storeNumber": 467,
   "storeImage": "ikea_burbank",
   "address": "Gesällvägen  3",
   "zipCode": "85753",
   "city": "Sundsvall",
   "country": "Sweden",
   "telephone": "4660144200",
   "size": 26408,
   "roomSettings": 36,
   "realLifeHomes": 3,
   "cashLanes": 25,
   "restaurantSeating": 453,
   "latitude": 62.445463,
   "longitude": 17.336494,
   "webpage": "http://www.ikea.com/se/sv/store/sundsvall",
   "smaland": 1
 },
 {
   "storeName": "Suzhou",
   "storeNumber": 484,
   "storeImage": "ikea_cairo",
   "address": "No. 17 Chengji Road Hushuguan Town ",
   "zipCode": "",
   "city": "Suzhou",
   "country": "China",
   "telephone": "",
   "size": 0,
   "roomSettings": 56,
   "realLifeHomes": 0,
   "cashLanes": 0,
   "restaurantSeating": 700,
   "latitude": 31.37337,
   "longitude": 120.5281432,
   "webpage": "http://www.ikea.com/cn/en/store/suzhou/store_info",
   "smaland": 1
 },
 {
   "storeName": "Sydney (Marsden Park)",
   "storeNumber": 377,
   "storeImage": "ikea_canton",
   "address": "17 HOLLINSWORTH ROAD",
   "zipCode": "2765",
   "city": "MARSDEN PARK",
   "country": "Australia",
   "telephone": "",
   "size": 0,
   "roomSettings": 0,
   "realLifeHomes": 0,
   "cashLanes": 0,
   "restaurantSeating": 0,
   "latitude": -33.7206,
   "longitude": 150.8417,
   "webpage": "",
   "smaland": 0
 },
 {
   "storeName": "Sydney (Rhodes)",
   "storeNumber": 385,
   "storeImage": "ikea_carson",
   "address": "Oulton Avenue 1",
   "zipCode": "2138",
   "city": "Rhodes, Sydney",
   "country": "Australia",
   "telephone": "",
   "size": 28130,
   "roomSettings": 55,
   "realLifeHomes": 3,
   "cashLanes": 43,
   "restaurantSeating": 300,
   "latitude": -33.835943,
   "longitude": 151.084878,
   "webpage": "",
   "smaland": 0
 },
 {
   "storeName": "Sydney (Tempe)",
   "storeNumber": 446,
   "storeImage": "ikea_elizabeth",
   "address": "Princess Highway 634-726",
   "zipCode": "2044",
   "city": "Tempe, Sydney",
   "country": "Australia",
   "telephone": "",
   "size": 39086,
   "roomSettings": 62,
   "realLifeHomes": 3,
   "cashLanes": 44,
   "restaurantSeating": 700,
   "latitude": -33.923262,
   "longitude": 151.165897,
   "webpage": "",
   "smaland": 1
 },
 {
   "storeName": "Taichung",
   "storeNumber": 305,
   "storeImage": "ikea_emeryville",
   "address": "168, Sec. 2, Hsian-Shang Rd",
   "zipCode": "",
   "city": "Taichung",
   "country": "Taiwan",
   "telephone": "",
   "size": 34685,
   "roomSettings": 0,
   "realLifeHomes": 0,
   "cashLanes": 13,
   "restaurantSeating": 750,
   "latitude": 24.146891,
   "longitude": 120.642635,
   "webpage": "",
   "smaland": 0
 },
 {
   "storeName": "Taipei (Asia World)",
   "storeNumber": 350,
   "storeImage": "ikea_hamburg",
   "address": "Tun Hwa North Road  100 B1",
   "zipCode": "10547",
   "city": "Taipei",
   "country": "Taiwan",
   "telephone": "886227168900",
   "size": 11300,
   "roomSettings": 28,
   "realLifeHomes": 3,
   "cashLanes": 11,
   "restaurantSeating": 219,
   "latitude": 25.0523503,
   "longitude": 121.5484286,
   "webpage": "http://www.ikea.com/tw/zh/store/asia_world/eng_ikea_asia_world",
   "smaland": 1
 },
 {
   "storeName": "Taipei (Hsin Chuang)",
   "storeNumber": 363,
   "storeImage": "ikea_madrid",
   "address": "Chung Cheng Road  1",
   "zipCode": "24243",
   "city": "Hsin-Chuang",
   "country": "Taiwan",
   "telephone": "886222765388",
   "size": 27098,
   "roomSettings": 45,
   "realLifeHomes": 3,
   "cashLanes": 15,
   "restaurantSeating": 607,
   "latitude": 25.0408774,
   "longitude": 121.4649167,
   "webpage": "http://www.ikea.com/tw/zh/store/hsin_chuang/eng_ikea_Hsinchuang",
   "smaland": 0
 },
 {
   "storeName": "Taipei (Tao Yuan)",
   "storeNumber": 361,
   "storeImage": "ikea_sandiego",
   "address": "Chung Sun Rd  958 (Tao-Yuan City)",
   "zipCode": "33072",
   "city": "Tao-Yuan",
   "country": "Taiwan",
   "telephone": "88633797006",
   "size": 19095,
   "roomSettings": 35,
   "realLifeHomes": 3,
   "cashLanes": 13,
   "restaurantSeating": 295,
   "latitude": 24.989478,
   "longitude": 121.286493,
   "webpage": "http://www.ikea.com/tw/zh/store/tao_yuan/eng_ikea_Taoyuan",
   "smaland": 1
 },
 {
   "storeName": "Tampa",
   "storeNumber": 42,
   "storeImage": "ikea_tampines",
   "address": "1103 N 22nd. Street",
   "zipCode": "33605",
   "city": "Tampa",
   "country": "USA",
   "telephone": "+ 1  813 623-4042",
   "size": 32913,
   "roomSettings": 50,
   "realLifeHomes": 3,
   "cashLanes": 26,
   "restaurantSeating": 335,
   "latitude": 27.95506,
   "longitude": -82.433499,
   "webpage": "http://www.ikea.com/us/en/store/tampa",
   "smaland": 1
 },
 {
   "storeName": "Tampere",
   "storeNumber": 8,
   "storeImage": "ikea_tempe",
   "address": "Leppästensuonkatu 4",
   "zipCode": "33840",
   "city": "Tampere",
   "country": "Finland",
   "telephone": "358934829400",
   "size": 38460,
   "roomSettings": 62,
   "realLifeHomes": 3,
   "cashLanes": 28,
   "restaurantSeating": 550,
   "latitude": 61.453803,
   "longitude": 23.780923,
   "webpage": "http://www.ikea.com/fi/fi/store/tampere",
   "smaland": 0
 },
 {
   "storeName": "Tel Aviv (Netanya)",
   "storeNumber": 206,
   "storeImage": "ikea_tottenham",
   "address": "Poleg Industrial zone, P.O.Box 8607",
   "zipCode": "42504",
   "city": "Netanya",
   "country": "Israel",
   "telephone": "97298928855",
   "size": 19045,
   "roomSettings": 47,
   "realLifeHomes": 3,
   "cashLanes": 18,
   "restaurantSeating": 320,
   "latitude": 32.3462,
   "longitude": 34.8615,
   "webpage": "http://www.ikea.co.il/",
   "smaland": 0
 },
 {
   "storeName": "Tel Aviv (Rishon LeZion)",
   "storeNumber": 217,
   "storeImage": "ikea_webley",
   "address": "1 Giboray IS",
   "zipCode": "4250401",
   "city": "Netanya",
   "country": "Israel",
   "telephone": "",
   "size": 23059,
   "roomSettings": 46,
   "realLifeHomes": 3,
   "cashLanes": 26,
   "restaurantSeating": 696,
   "latitude": 31.951891,
   "longitude": 34.770742,
   "webpage": "",
   "smaland": 1
 },
 {
   "storeName": "Tenerife (Santa Cruz)",
   "storeNumber": 23,
   "storeImage": "ikea_westchester",
   "address": "Parque Comercial La Laguna",
   "zipCode": "38205",
   "city": "La Laguna",
   "country": "Spain",
   "telephone": "34922208960",
   "size": 14600,
   "roomSettings": 46,
   "realLifeHomes": 3,
   "cashLanes": 9,
   "restaurantSeating": 170,
   "latitude": 28.4596773,
   "longitude": -16.3068308,
   "webpage": "http://www.tenerife.ikea.es/",
   "smaland": 0
 },
 {
   "storeName": "Thessaloniki",
   "storeNumber": 366,
   "storeImage": "ikea_brooklyn",
   "address": "12 km Nat Rd Thessaloniki-Peraia",
   "zipCode": "57001",
   "city": "Pylaia - Thessaloniki",
   "country": "Greece",
   "telephone": "302310490400",
   "size": 20075,
   "roomSettings": 38,
   "realLifeHomes": 3,
   "cashLanes": 16,
   "restaurantSeating": 275,
   "latitude": 40.5506463,
   "longitude": 22.9847125,
   "webpage": "http://www.ikea.gr/default.aspx?page=home",
   "smaland": 1
 },
 {
   "storeName": "Tianjin",
   "storeNumber": 58,
   "storeImage": "ikea_burbank",
   "address": "No.433,Jintang Road Dongli District",
   "zipCode": "300300",
   "city": "Tianjin",
   "country": "China",
   "telephone": "",
   "size": 48273,
   "roomSettings": 67,
   "realLifeHomes": 3,
   "cashLanes": 28,
   "restaurantSeating": 650,
   "latitude": 39.0901541,
   "longitude": 117.316563,
   "webpage": "",
   "smaland": 0
 },
 {
   "storeName": "Tokyo (Funabashi)",
   "storeNumber": 447,
   "storeImage": "ikea_cairo",
   "address": "Hama-Cho  2-3-30",
   "zipCode": "273-0012",
   "city": "Funabashi",
   "country": "Japan",
   "telephone": "81474361511",
   "size": 39044,
   "roomSettings": 49,
   "realLifeHomes": 9,
   "cashLanes": 28,
   "restaurantSeating": 750,
   "latitude": 35.682008,
   "longitude": 139.992742,
   "webpage": "http://www.ikea.com/jp/en/store/funabashi",
   "smaland": 1
 },
 {
   "storeName": "Tokyo (Kohoku)",
   "storeNumber": 448,
   "storeImage": "ikea_canton",
   "address": "201-1 Orimoto-cho",
   "zipCode": "224-0043",
   "city": "Kanagawa-ken",
   "country": "Japan",
   "telephone": "",
   "size": 39170,
   "roomSettings": 51,
   "realLifeHomes": 7,
   "cashLanes": 36,
   "restaurantSeating": 760,
   "latitude": 35.522445,
   "longitude": 139.590175,
   "webpage": "",
   "smaland": 1
 },
 {
   "storeName": "Tokyo (Shin-Misato)",
   "storeNumber": 887,
   "storeImage": "ikea_carson",
   "address": "2-2-2 Lala City Shinmisato",
   "zipCode": "341-0003",
   "city": "Misato Shi",
   "country": "Japan",
   "telephone": "",
   "size": 34880,
   "roomSettings": 48,
   "realLifeHomes": 3,
   "cashLanes": 29,
   "restaurantSeating": 632,
   "latitude": 35.856872,
   "longitude": 139.870221,
   "webpage": "",
   "smaland": 1
 },
 {
   "storeName": "Tokyo (Tachikawa)",
   "storeNumber": 359,
   "storeImage": "ikea_elizabeth",
   "address": "6 Midori - Cho",
   "zipCode": "190-0014",
   "city": "Tachikawa City, Tokyo",
   "country": "Japan",
   "telephone": "81474361009",
   "size": 33201,
   "roomSettings": 50,
   "realLifeHomes": 6,
   "cashLanes": 13,
   "restaurantSeating": 724,
   "latitude": 35.7073,
   "longitude": 139.4119,
   "webpage": "",
   "smaland": 1
 },
 {
   "storeName": "Toronto (Burlington)",
   "storeNumber": 40,
   "storeImage": "ikea_emeryville",
   "address": "Plains Road East  1065",
   "zipCode": "L7T 2B7",
   "city": "Burlington",
   "country": "Canada",
   "telephone": "19056814532",
   "size": 18944,
   "roomSettings": 35,
   "realLifeHomes": 1,
   "cashLanes": 30,
   "restaurantSeating": 250,
   "latitude": 43.328158,
   "longitude": -79.82913,
   "webpage": "",
   "smaland": 0
 },
 {
   "storeName": "Toronto (Etobicoke)",
   "storeNumber": 256,
   "storeImage": "ikea_hamburg",
   "address": "The Queensway  1475",
   "zipCode": "M8Z 1T3",
   "city": "Toronto",
   "country": "Canada",
   "telephone": "14166468182",
   "size": 32808,
   "roomSettings": 54,
   "realLifeHomes": 0,
   "cashLanes": 35,
   "restaurantSeating": 362,
   "latitude": 43.618222,
   "longitude": -79.534488,
   "webpage": "http://www.ikea.com/ca/en/store/etobicoke",
   "smaland": 0
 },
 {
   "storeName": "Toronto (North York)",
   "storeNumber": 149,
   "storeImage": "ikea_madrid",
   "address": "Provost Drive  15",
   "zipCode": "M2K 2X9",
   "city": "North York",
   "country": "Canada",
   "telephone": "14162269983",
   "size": 24594,
   "roomSettings": 44,
   "realLifeHomes": 1,
   "cashLanes": 31,
   "restaurantSeating": 480,
   "latitude": 43.767544,
   "longitude": -79.368934,
   "webpage": "http://www.ikea.com/ca/en/store/north_york",
   "smaland": 1
 },
 {
   "storeName": "Toronto (Vaughan)",
   "storeNumber": 372,
   "storeImage": "ikea_sandiego",
   "address": "Interchange Way  200",
   "zipCode": "L4K 5C3",
   "city": "Vaughan",
   "country": "Canada",
   "telephone": "19056955077",
   "size": 26922,
   "roomSettings": 45,
   "realLifeHomes": 1,
   "cashLanes": 31,
   "restaurantSeating": 442,
   "latitude": 43.787341,
   "longitude": -79.529562,
   "webpage": "http://www.ikea.com/ca/en/store/vaughan",
   "smaland": 0
 },
 {
   "storeName": "Toulon (La Valette du Var)",
   "storeNumber": 315,
   "storeImage": "ikea_tampines",
   "address": "Zac De Valgora  BP 515",
   "zipCode": "83041",
   "city": "Toulon",
   "country": "France",
   "telephone": "330494146688",
   "size": 22232,
   "roomSettings": 41,
   "realLifeHomes": 3,
   "cashLanes": 28,
   "restaurantSeating": 450,
   "latitude": 43.141438,
   "longitude": 6.010279,
   "webpage": "http://www.ikea.com/fr/fr/store/toulon",
   "smaland": 1
 },
 {
   "storeName": "Toulouse (Roques)",
   "storeNumber": 242,
   "storeImage": "ikea_tempe",
   "address": "Allee Du Fraixinet  9",
   "zipCode": "31120",
   "city": "Toulouse",
   "country": "France",
   "telephone": "",
   "size": 23426,
   "roomSettings": 41,
   "realLifeHomes": 3,
   "cashLanes": 35,
   "restaurantSeating": 592,
   "latitude": 43.517094,
   "longitude": 1.376669,
   "webpage": "http://www.ikea.com/fr/fr/store/toulouse",
   "smaland": 0
 },
 {
   "storeName": "Tours",
   "storeNumber": 434,
   "storeImage": "ikea_tottenham",
   "address": "9 Avenue Georges Pompidou Rochepinard",
   "zipCode": "37000",
   "city": "Tours",
   "country": "France",
   "telephone": "330247325030",
   "size": 26232,
   "roomSettings": 47,
   "realLifeHomes": 3,
   "cashLanes": 26,
   "restaurantSeating": 440,
   "latitude": 47.375803,
   "longitude": 0.718198,
   "webpage": "http://www.ikea.com/fr/fr/store/tours",
   "smaland": 1
 },
 {
   "storeName": "Trieste (Villesse)",
   "storeNumber": 116,
   "storeImage": "ikea_webley",
   "address": "Via Cividale",
   "zipCode": "34070",
   "city": "Villesse",
   "country": "Italy",
   "telephone": "3904810000000",
   "size": 35971,
   "roomSettings": 48,
   "realLifeHomes": 3,
   "cashLanes": 34,
   "restaurantSeating": 370,
   "latitude": 45.871499,
   "longitude": 13.44409,
   "webpage": "http://www.ikea.com/it/it/store/villesse",
   "smaland": 1
 },
 {
   "storeName": "Trondheim (Leangen)",
   "storeNumber": 371,
   "storeImage": "ikea_westchester",
   "address": "Landbruksveien  2",
   "zipCode": "7048",
   "city": "Trondheim",
   "country": "Norway",
   "telephone": "4773847000",
   "size": 33729,
   "roomSettings": 37,
   "realLifeHomes": 3,
   "cashLanes": 16,
   "restaurantSeating": 381,
   "latitude": 63.4286798,
   "longitude": 10.4729762,
   "webpage": "http://www.ikea.com/no/no/store/leangen",
   "smaland": 0
 },
 {
   "storeName": "Turin (Collegno)",
   "storeNumber": 456,
   "storeImage": "ikea_brooklyn",
   "address": "VIALE SVEZIA",
   "zipCode": "10093",
   "city": "Collegno",
   "country": "Italy",
   "telephone": "3901120000000",
   "size": 39016,
   "roomSettings": 57,
   "realLifeHomes": 3,
   "cashLanes": 0,
   "restaurantSeating": 550,
   "latitude": 45.096947,
   "longitude": 7.579924,
   "webpage": "http://www.ikea.com/it/it/store/torino_collegno",
   "smaland": 0
 },
 {
   "storeName": "Uddevalla",
   "storeNumber": 53,
   "storeImage": "ikea_burbank",
   "address": "Östra Torpvägen 30",
   "zipCode": "45176",
   "city": "Udevalla",
   "country": "Sweden",
   "telephone": "",
   "size": 36350,
   "roomSettings": 0,
   "realLifeHomes": 0,
   "cashLanes": 0,
   "restaurantSeating": 570,
   "latitude": 58.35490278,
   "longitude": 11.81930278,
   "webpage": "",
   "smaland": 1
 },
 {
   "storeName": "Ufa",
   "storeNumber": 346,
   "storeImage": "ikea_cairo",
   "address": "Rubezhnaya str. 174",
   "zipCode": "450018",
   "city": "Ufa",
   "country": "Russia",
   "telephone": "73472937300",
   "size": 25497,
   "roomSettings": 58,
   "realLifeHomes": 2,
   "cashLanes": 19,
   "restaurantSeating": 550,
   "latitude": 54.6731167,
   "longitude": 55.9289278,
   "webpage": "http://www.ikea.com/ru/ru/",
   "smaland": 0
 },
 {
   "storeName": "Ulm",
   "storeNumber": 328,
   "storeImage": "ikea_canton",
   "address": "Blaubeurer Strasse  10",
   "zipCode": "89077",
   "city": "Ulm",
   "country": "Germany",
   "telephone": "4973117560",
   "size": 31883,
   "roomSettings": 48,
   "realLifeHomes": 3,
   "cashLanes": 32,
   "restaurantSeating": 492,
   "latitude": 48.4026229,
   "longitude": 9.9762878,
   "webpage": "http://www.ikea.com/de/de/store/ulm",
   "smaland": 1
 },
 {
   "storeName": "Umeå",
   "storeNumber": 416,
   "storeImage": "ikea_carson",
   "address": "Marknadsgatan 15",
   "zipCode": "90422",
   "city": "Umeå",
   "country": "Sweden",
   "telephone": "",
   "size": 30000,
   "roomSettings": 49,
   "realLifeHomes": 3,
   "cashLanes": null,
   "restaurantSeating": 500,
   "latitude": 63.808,
   "longitude": 20.255,
   "webpage": "",
   "smaland": 0
 },
 {
   "storeName": "Uppsala",
   "storeNumber": 70,
   "storeImage": "ikea_elizabeth",
   "address": "Rapsgatan  3",
   "zipCode": "75323",
   "city": "Uppsala",
   "country": "Sweden",
   "telephone": "4618284600",
   "size": 36873,
   "roomSettings": 54,
   "realLifeHomes": 18,
   "cashLanes": 45,
   "restaurantSeating": 560,
   "latitude": 59.847164,
   "longitude": 17.692332,
   "webpage": "http://www.ikea.com/se/sv/store/uppsala",
   "smaland": 1
 },
 {
   "storeName": "Utrecht",
   "storeNumber": 270,
   "storeImage": "ikea_emeryville",
   "address": "Van Rensselaerlaan  7",
   "zipCode": "3526 AP",
   "city": "Utrecht",
   "country": "Netherlands",
   "telephone": "31302876100",
   "size": 18140,
   "roomSettings": 59,
   "realLifeHomes": 3,
   "cashLanes": 21,
   "restaurantSeating": 290,
   "latitude": 52.0620687,
   "longitude": 5.0996173,
   "webpage": "http://www.ikea.com/nl/nl/store/utrecht",
   "smaland": 1
 },
 {
   "storeName": "Valencia (Alfafar)",
   "storeNumber": 339,
   "storeImage": "ikea_hamburg",
   "address": "Calle Alquería Nova, 12",
   "zipCode": "46910",
   "city": "Valencia (Alfafar)",
   "country": "Spain",
   "telephone": "34608553831",
   "size": 35077,
   "roomSettings": 0,
   "realLifeHomes": 0,
   "cashLanes": 0,
   "restaurantSeating": 592,
   "latitude": 39.413889,
   "longitude": -0.387778,
   "webpage": "",
   "smaland": 1
 },
 {
   "storeName": "Valladolid",
   "storeNumber": 30,
   "storeImage": "ikea_madrid",
   "address": "Calle Me Falte Un Tornillo 5",
   "zipCode": "47195",
   "city": "Valladolid",
   "country": "Spain",
   "telephone": "",
   "size": 34252,
   "roomSettings": 58,
   "realLifeHomes": 3,
   "cashLanes": 26,
   "restaurantSeating": 550,
   "latitude": 41.6095218,
   "longitude": -4.7964581,
   "webpage": "",
   "smaland": 1
 },
 {
   "storeName": "Vancouver (Coquitlam)",
   "storeNumber": 313,
   "storeImage": "ikea_sandiego",
   "address": "Lougheed Highway  1000",
   "zipCode": "V3K 3T5",
   "city": "Coquitlam",
   "country": "Canada",
   "telephone": "16046361000",
   "size": 31920,
   "roomSettings": 43,
   "realLifeHomes": 2,
   "cashLanes": 35,
   "restaurantSeating": 425,
   "latitude": 49.234654,
   "longitude": -122.866672,
   "webpage": "http://www.ikea.com/ca/en/store/coquitlam",
   "smaland": 0
 },
 {
   "storeName": "Vancouver (Richmond)",
   "storeNumber": 3,
   "storeImage": "ikea_tampines",
   "address": "3320 Jacombs Road",
   "zipCode": "V6V 1Z6",
   "city": "Richmond",
   "country": "Canada",
   "telephone": "",
   "size": 33563,
   "roomSettings": 50,
   "realLifeHomes": 2,
   "cashLanes": 36,
   "restaurantSeating": 606,
   "latitude": 49.1822963,
   "longitude": -123.0803267,
   "webpage": "",
   "smaland": 0
 },
 {
   "storeName": "Västerås",
   "storeNumber": 20,
   "storeImage": "ikea_tempe",
   "address": "Domkraftsgatan 6",
   "zipCode": "72138",
   "city": "Västerås",
   "country": "Sweden",
   "telephone": "46184810073",
   "size": 38618,
   "roomSettings": 60,
   "realLifeHomes": 3,
   "cashLanes": 38,
   "restaurantSeating": 560,
   "latitude": 59.60725,
   "longitude": 16.4549806,
   "webpage": "http://www.ikea.com/se/sv/store/vasteras",
   "smaland": 1
 },
 {
   "storeName": "Vienna (North)",
   "storeNumber": 90,
   "storeImage": "ikea_tottenham",
   "address": "Sverigestrasse  1 A",
   "zipCode": "1220",
   "city": "Wien",
   "country": "Austria",
   "telephone": "-22129.99941",
   "size": 29308,
   "roomSettings": 48,
   "realLifeHomes": 3,
   "cashLanes": 24,
   "restaurantSeating": 354,
   "latitude": 48.2536049,
   "longitude": 16.4712033,
   "webpage": "http://www.ikea.com/at/de/store/wiennord",
   "smaland": 0
 },
 {
   "storeName": "Vienna (Vösendorf)",
   "storeNumber": 85,
   "storeImage": "ikea_webley",
   "address": "Shopping City Süd",
   "zipCode": "2334",
   "city": "Vösendorf Süd",
   "country": "Austria",
   "telephone": "4378123359177",
   "size": 35315,
   "roomSettings": 58,
   "realLifeHomes": 3,
   "cashLanes": 12,
   "restaurantSeating": 595,
   "latitude": 48.10538,
   "longitude": 16.31804,
   "webpage": "http://www.ikea.com/at/de/store/voesendorf",
   "smaland": 1
 },
 {
   "storeName": "Vilnius",
   "storeNumber": 235,
   "storeImage": "ikea_westchester",
   "address": "Vikingu Str 1",
   "zipCode": "2182",
   "city": "Vilnius",
   "country": "Lithuania",
   "telephone": "",
   "size": 24930,
   "roomSettings": 0,
   "realLifeHomes": 0,
   "cashLanes": 0,
   "restaurantSeating": 456,
   "latitude": 54.6754233,
   "longitude": 25.2682066,
   "webpage": "",
   "smaland": 0
 },
 {
   "storeName": "Warsaw (Janki)",
   "storeNumber": 188,
   "storeImage": "ikea_brooklyn",
   "address": "Pl. Szwedzki  1 (Janki)",
   "zipCode": "5090",
   "city": "Raszyn",
   "country": "Poland",
   "telephone": "48227031100",
   "size": 23349,
   "roomSettings": 39,
   "realLifeHomes": 3,
   "cashLanes": 26,
   "restaurantSeating": 450,
   "latitude": 52.1334,
   "longitude": 20.895227,
   "webpage": "http://www.ikea.com/pl/pl/store/warszawa_janki",
   "smaland": 1
 },
 {
   "storeName": "Warsaw (Targovek)",
   "storeNumber": 307,
   "storeImage": "ikea_burbank",
   "address": "Ul. Malborska  51",
   "zipCode": "03-286",
   "city": "Warsaw",
   "country": "Poland",
   "telephone": "48223344400",
   "size": 22498,
   "roomSettings": 45,
   "realLifeHomes": 3,
   "cashLanes": 27,
   "restaurantSeating": 540,
   "latitude": 52.3057068,
   "longitude": 21.0829413,
   "webpage": "http://www.ikea.com/pl/pl/store/warszawa_targowek",
   "smaland": 1
 },
 {
   "storeName": "Washington (College Park)",
   "storeNumber": 411,
   "storeImage": "ikea_cairo",
   "address": "Baltimore Avenue  10100",
   "zipCode": "20740",
   "city": "College Park",
   "country": "USA",
   "telephone": "",
   "size": 34191,
   "roomSettings": 44,
   "realLifeHomes": 3,
   "cashLanes": 31,
   "restaurantSeating": 522,
   "latitude": 39.0206062,
   "longitude": -76.9290358,
   "webpage": "http://www.ikea.com/us/en/store/college_park",
   "smaland": 0
 },
 {
   "storeName": "Washington (Woodbridge)",
   "storeNumber": 168,
   "storeImage": "ikea_canton",
   "address": "Potomac Mills Circle  2900",
   "zipCode": "22192",
   "city": "Woodbridge",
   "country": "USA",
   "telephone": "",
   "size": 27956,
   "roomSettings": 38,
   "realLifeHomes": 1,
   "cashLanes": 23,
   "restaurantSeating": 370,
   "latitude": 38.643131,
   "longitude": -77.28912,
   "webpage": "http://www.ikea.com/us/en/store/woodbridge",
   "smaland": 0
 },
 {
   "storeName": "Wiesbaden (Wallau)",
   "storeNumber": 322,
   "storeImage": "ikea_carson",
   "address": "Am Wandersmann  2-4",
   "zipCode": "65719",
   "city": "Hofheim-Wallau",
   "country": "Germany",
   "telephone": "4961225852457",
   "size": 31560,
   "roomSettings": 48,
   "realLifeHomes": 3,
   "cashLanes": 24,
   "restaurantSeating": 525,
   "latitude": 50.05813,
   "longitude": 8.37152,
   "webpage": "http://www.ikea.com/de/de/store/wallau#",
   "smaland": 1
 },
 {
   "storeName": "Winnipeg",
   "storeNumber": 249,
   "storeImage": "ikea_elizabeth",
   "address": "500 Sterling Lyon Parkway",
   "zipCode": "R3P 1E7",
   "city": "Winnipeg, MB",
   "country": "Canada",
   "telephone": "1-204-475-4532",
   "size": 36670,
   "roomSettings": 5,
   "realLifeHomes": 2,
   "cashLanes": 36,
   "restaurantSeating": 651,
   "latitude": 49.8399587,
   "longitude": -97.2090806,
   "webpage": "http://www.ikea.com/ca/en/",
   "smaland": 0
 },
 {
   "storeName": "Wroclaw",
   "storeNumber": 294,
   "storeImage": "ikea_emeryville",
   "address": "Ul. Czekoladowa  7",
   "zipCode": "55-075",
   "city": "Wroclaw",
   "country": "Poland",
   "telephone": "48713607600",
   "size": 38674,
   "roomSettings": 64,
   "realLifeHomes": 3,
   "cashLanes": 24,
   "restaurantSeating": 620,
   "latitude": 51.0478797,
   "longitude": 16.9659888,
   "webpage": "http://www.ikea.com/pl/pl/store/wroclaw",
   "smaland": 1
 },
 {
   "storeName": "Wuhan",
   "storeNumber": 340,
   "storeImage": "ikea_hamburg",
   "address": "No.1 Gongnong Rd, Qiao Kou Dis",
   "zipCode": "430000",
   "city": "Wuhan",
   "country": "China",
   "telephone": "",
   "size": 46000,
   "roomSettings": 0,
   "realLifeHomes": 0,
   "cashLanes": 0,
   "restaurantSeating": 668,
   "latitude": 30.615681,
   "longitude": 114.163785,
   "webpage": "",
   "smaland": 0
 },
 {
   "storeName": "Wuppertal",
   "storeNumber": 492,
   "storeImage": "ikea_madrid",
   "address": "Schmiedestraße 81",
   "zipCode": "42279",
   "city": "Wuppertal",
   "country": "Germany",
   "telephone": "",
   "size": 0,
   "roomSettings": 0,
   "realLifeHomes": 0,
   "cashLanes": 0,
   "restaurantSeating": 0,
   "latitude": 51.308316,
   "longitude": 7.251961,
   "webpage": "http://www.ikea.com/de/de/store/wuppertal/store_info",
   "smaland": 1
 },
 {
   "storeName": "Würzburg",
   "storeNumber": 124,
   "storeImage": "ikea_sandiego",
   "address": "Mainfrankenhoehe  2",
   "zipCode": "97078",
   "city": "Wuerzburg",
   "country": "Germany",
   "telephone": "49931329930",
   "size": 36594,
   "roomSettings": 51,
   "realLifeHomes": 3,
   "cashLanes": 35,
   "restaurantSeating": 520,
   "latitude": 49.829816,
   "longitude": 9.988839,
   "webpage": "http://www.ikea.com/de/de/store/wuerzburg",
   "smaland": 1
 },
 {
   "storeName": "Wuxi",
   "storeNumber": 164,
   "storeImage": "ikea_tampines",
   "address": "No.1 , Tuanjie Middle Road",
   "zipCode": "214101",
   "city": "Wuxi",
   "country": "China",
   "telephone": "",
   "size": 45494,
   "roomSettings": 60,
   "realLifeHomes": 3,
   "cashLanes": 28,
   "restaurantSeating": 700,
   "latitude": 31.588533,
   "longitude": 120.357606,
   "webpage": "",
   "smaland": 1
 },
 {
   "storeName": "Xian",
   "storeNumber": 424,
   "storeImage": "ikea_tempe",
   "address": "Rm 514 Fl 5, No 139 Sanqiao Street",
   "zipCode": "710000",
   "city": "Xian",
   "country": "China",
   "telephone": "",
   "size": 0,
   "roomSettings": 0,
   "realLifeHomes": 0,
   "cashLanes": 0,
   "restaurantSeating": 0,
   "latitude": 34.2897,
   "longitude": 108.8332,
   "webpage": "",
   "smaland": 1
 },
 {
   "storeName": "Zagreb",
   "storeNumber": 21,
   "storeImage": "ikea_tottenham",
   "address": "Ulica Alfreda Nobela",
   "zipCode": "10370",
   "city": "Zagreb (Dugo Selo)",
   "country": "Croatia",
   "telephone": "3814455660",
   "size": 0,
   "roomSettings": 0,
   "realLifeHomes": 0,
   "cashLanes": 0,
   "restaurantSeating": 504,
   "latitude": 45.792553,
   "longitude": 16.155178,
   "webpage": "",
   "smaland": 0
 },
 {
   "storeName": "Zaragoza",
   "storeNumber": 497,
   "storeImage": "ikea_webley",
   "address": "Urb. Puerto Venecia",
   "zipCode": "50007",
   "city": "Zaragoza",
   "country": "Spain",
   "telephone": "",
   "size": 30563,
   "roomSettings": 45,
   "realLifeHomes": 3,
   "cashLanes": 33,
   "restaurantSeating": 474,
   "latitude": 41.6071167,
   "longitude": -0.8913249,
   "webpage": "http://www.ikea.com/es/es/store/zaragoza",
   "smaland": 0
 },
 {
   "storeName": "Zurich (Dietlikon)",
   "storeNumber": 291,
   "storeImage": "ikea_westchester",
   "address": "Moorstrasse  3",
   "zipCode": "8305",
   "city": "Dietlikon",
   "country": "Switzerland",
   "telephone": "",
   "size": 32052,
   "roomSettings": 41,
   "realLifeHomes": 2,
   "cashLanes": 28,
   "restaurantSeating": 350,
   "latitude": 47.413921,
   "longitude": 8.623185,
   "webpage": "http://www.ikea.com/ch/de/store/dietlikon/",
   "smaland": 1
 },
 {
   "storeName": "Zurich (Spreitenbach)",
   "storeNumber": 79,
   "storeImage": "ikea_brooklyn",
   "address": "Müslistrasse  16",
   "zipCode": "8957",
   "city": "Spreitenbach",
   "country": "Switzerland",
   "telephone": "",
   "size": 34283,
   "roomSettings": 50,
   "realLifeHomes": 3,
   "cashLanes": 37,
   "restaurantSeating": 600,
   "latitude": 47.4217169,
   "longitude": 8.3758781,
   "webpage": "http://www.ikea.com/ch/de/store/spreitenbach",
   "smaland": 0
 },
 {
   "storeName": "Zwolle",
   "storeNumber": 391,
   "storeImage": "ikea_burbank",
   "address": "Diepholtstraat 3",
   "zipCode": "8028 PN",
   "city": "Zwolle",
   "country": "Netherlands",
   "telephone": "",
   "size": 0,
   "roomSettings": 0,
   "realLifeHomes": 0,
   "cashLanes": 0,
   "restaurantSeating": 0,
   "latitude": 52.5336,
   "longitude": 6.1624,
   "webpage": "",
   "smaland": 1
 }
]
